latitude,longitude,altitude,geometry,Dates,Category,Descript,DayOfWeek,PdDistrict,Resolution,Address,X,Y
37.7316647926496,-122.44317743244899,,Point,2013-09-03 08:00:00,BURGLARY,"BURGLARY OF APARTMENT HOUSE, UNLAWFUL ENTRY",Tuesday,INGLESIDE,NONE,300 Block of MONTEREY BL,-122.44317743244899,37.7316647926496
37.7686952126247,-122.397842581798,,Point,2009-10-27 08:00:00,OTHER OFFENSES,RESISTING ARREST,Tuesday,BAYVIEW,NONE,1100 Block of 7TH ST,-122.397842581798,37.7686952126247
37.78447885387449,-122.404270179486,,Point,2008-06-11 12:25:00,LARCENY/THEFT,GRAND THEFT OF PROPERTY,Wednesday,SOUTHERN,NONE,MISSION ST / 4TH ST,-122.404270179486,37.78447885387449
37.759691691831,-122.428203997155,,Point,2013-06-02 21:15:00,VEHICLE THEFT,STOLEN AUTOMOBILE,Sunday,MISSION,NONE,19TH ST / CHURCH ST,-122.428203997155,37.759691691831
37.78418890752671,-122.41013523637699,,Point,2008-11-15 11:25:00,ASSAULT,THREATS AGAINST LIFE,Saturday,TENDERLOIN,"ARREST, BOOKED",100 Block of EDDY ST,-122.41013523637699,37.78418890752671
37.7886989511418,-122.420307355728,,Point,2005-06-29 09:49:00,OTHER OFFENSES,RESISTING ARREST,Wednesday,NORTHERN,"ARREST, BOOKED",BUSH ST / POLK ST,-122.420307355728,37.7886989511418
37.768023543435504,-122.413343513435,,Point,2014-11-13 14:18:00,WARRANTS,ENROUTE TO OUTSIDE JURISDICTION,Thursday,MISSION,"ARREST, BOOKED",ALAMEDA ST / HARRISON ST,-122.413343513435,37.768023543435504
37.7586324051562,-122.419052694349,,Point,2007-02-07 10:05:00,NON-CRIMINAL,LOST PROPERTY,Wednesday,MISSION,NONE,MISSION ST / 20TH ST,-122.419052694349,37.7586324051562
37.7936363546057,-122.407748570466,,Point,2008-06-15 10:00:00,LARCENY/THEFT,PETTY THEFT FROM A BUILDING,Sunday,CENTRAL,NONE,800 Block of STOCKTON ST,-122.407748570466,37.7936363546057
37.7452607746654,-122.42122878644899,,Point,2007-07-09 13:00:00,NON-CRIMINAL,"AIDED CASE, MENTAL DISTURBED",Monday,INGLESIDE,NONE,0 Block of TIFFANY AV,-122.42122878644899,37.7452607746654
37.7614118083919,-122.427242380192,,Point,2009-11-09 13:00:00,LARCENY/THEFT,GRAND THEFT FROM A BUILDING,Monday,MISSION,NONE,3700 Block of 18TH ST,-122.427242380192,37.7614118083919
37.730024796823,-122.42718021085301,,Point,2005-12-30 17:30:00,VEHICLE THEFT,"VEHICLE, RECOVERED, AUTO",Friday,INGLESIDE,NONE,100 Block of NEY ST,-122.42718021085301,37.730024796823
37.784696907904,-122.413609328985,,Point,2005-05-21 17:16:00,NON-CRIMINAL,AIDED CASE,Saturday,TENDERLOIN,NONE,400 Block of ELLIS ST,-122.413609328985,37.784696907904
37.7329162539537,-122.416446124049,,Point,2003-03-31 10:25:00,OTHER OFFENSES,FALSE EVIDENCE OF VEHICLE REGISTRATION,Monday,INGLESIDE,NONE,900 Block of ELLSWORTH ST,-122.416446124049,37.7329162539537
37.7772741854354,-122.404071611406,,Point,2007-06-11 12:35:00,OTHER OFFENSES,"DRIVERS LICENSE, SUSPENDED OR REVOKED",Monday,SOUTHERN,"ARREST, CITED",HARRISON ST / 6TH ST,-122.404071611406,37.7772741854354
37.7285280627465,-122.47564746078599,,Point,2014-10-31 10:00:00,LARCENY/THEFT,PETTY THEFT OF PROPERTY,Friday,TARAVAL,NONE,3200 Block of 20TH AV,-122.47564746078599,37.7285280627465
37.7901567744673,-122.40836738789,,Point,2014-02-21 07:15:00,NON-CRIMINAL,LOST PROPERTY,Friday,CENTRAL,NONE,600 Block of BUSH ST,-122.40836738789,37.7901567744673
37.79872821788229,-122.43575101831,,Point,2013-08-24 01:30:00,LARCENY/THEFT,GRAND THEFT FROM PERSON,Saturday,NORTHERN,NONE,3100 Block of FILLMORE ST,-122.43575101831,37.79872821788229
37.7821198488931,-122.415669661443,,Point,2008-02-07 21:10:00,DRUG/NARCOTIC,SALE OF BASE/ROCK COCAINE,Thursday,TENDERLOIN,"ARREST, BOOKED",100 Block of HYDE ST,-122.415669661443,37.7821198488931
37.7347969947349,-122.39069763068301,,Point,2013-05-17 13:45:00,OTHER OFFENSES,"DRIVERS LICENSE, SUSPENDED OR REVOKED",Friday,BAYVIEW,"ARREST, CITED",OAKDALE AV / 3RD ST,-122.39069763068301,37.7347969947349
37.74116878165521,-122.477180805232,,Point,2008-08-08 23:30:00,VEHICLE THEFT,STOLEN AUTOMOBILE,Friday,TARAVAL,NONE,1900 Block of ULLOA ST,-122.477180805232,37.74116878165521
37.7789982847524,-122.42844230761101,,Point,2012-12-15 04:30:00,SUSPICIOUS OCC,INVESTIGATIVE DETENTION,Saturday,NORTHERN,"ARREST, CITED",1000 Block of MCALLISTER ST,-122.42844230761101,37.7789982847524
37.733917775522706,-122.392235600843,,Point,2006-03-23 22:30:00,VANDALISM,"MALICIOUS MISCHIEF, VANDALISM OF VEHICLES",Thursday,BAYVIEW,NONE,1700 Block of QUESADA AV,-122.392235600843,37.733917775522706
37.784696907904,-122.413609328985,,Point,2009-04-03 15:32:00,WARRANTS,ENROUTE TO PAROLE OFFICER,Friday,TENDERLOIN,"ARREST, BOOKED",400 Block of ELLIS ST,-122.413609328985,37.784696907904
37.767717752066496,-122.41560549623699,,Point,2011-02-12 16:55:00,LARCENY/THEFT,PETTY THEFT SHOPLIFTING,Saturday,MISSION,"ARREST, CITED",1800 Block of FOLSOM ST,-122.41560549623699,37.767717752066496
37.739566960942994,-122.406979507971,,Point,2003-05-14 17:55:00,ASSAULT,UNLAWFUL DISSUADING/THREATENING OF A WITNESS,Wednesday,BAYVIEW,NONE,CORTLAND AV / BAY SHORE BL,-122.406979507971,37.739566960942994
37.7822305869807,-122.41029351969699,,Point,2005-01-26 17:18:00,DRUG/NARCOTIC,POSSESSION OF CONTROLLED SUBSTANCE,Wednesday,SOUTHERN,NONE,6TH ST / MARKET ST,-122.41029351969699,37.7822305869807
37.7881906054546,-122.41858050888901,,Point,2013-09-16 21:05:00,ASSAULT,BATTERY,Monday,NORTHERN,NONE,1100 Block of LARKIN ST,-122.41858050888901,37.7881906054546
37.73644389967321,-122.394438859914,,Point,2010-05-17 17:30:00,MISSING PERSON,MISSING JUVENILE,Monday,BAYVIEW,LOCATED,1400 Block of PHELPS ST,-122.394438859914,37.73644389967321
37.7619851996847,-122.440217789816,,Point,2011-07-26 16:15:00,OTHER OFFENSES,CONSPIRACY,Tuesday,PARK,"ARREST, BOOKED",100 Block of ORD ST,-122.440217789816,37.7619851996847
37.7675856525236,-122.417791285277,,Point,2006-11-19 01:44:00,BURGLARY,"BURGLARY,APT UNDER CONSTRUCTION, ATT. FORCIBLE",Sunday,MISSION,"ARREST, BOOKED",300 Block of SOUTH VAN NESS AV,-122.417791285277,37.7675856525236
37.7164586830811,-122.441018108888,,Point,2008-07-22 12:25:00,OTHER OFFENSES,"DRIVERS LICENSE, SUSPENDED OR REVOKED",Tuesday,INGLESIDE,"ARREST, CITED",GENEVA AV / MISSION ST,-122.441018108888,37.7164586830811
37.7800332991006,-122.464279879446,,Point,2013-09-18 09:00:00,ASSAULT,THREATENING PHONE CALL(S),Wednesday,RICHMOND,NONE,400 Block of 6TH AV,-122.464279879446,37.7800332991006
37.781911962829795,-122.413047972078,,Point,2013-02-04 06:35:00,TRESPASS,LODGING WITHOUT PERMISSION,Monday,TENDERLOIN,"ARREST, CITED",100 Block of GOLDEN GATE AV,-122.413047972078,37.781911962829795
37.7360345055827,-122.49246863966101,,Point,2008-01-10 22:00:00,LARCENY/THEFT,GRAND THEFT FROM LOCKED AUTO,Thursday,TARAVAL,NONE,2700 Block of 35TH AV,-122.49246863966101,37.7360345055827
37.7920052450737,-122.39164888422,,Point,2014-11-26 19:00:00,VANDALISM,"MALICIOUS MISCHIEF, VANDALISM OF VEHICLES",Wednesday,SOUTHERN,NONE,HOWARD ST / STEUART ST,-122.39164888422,37.7920052450737
37.7344301822995,-122.451789219157,,Point,2008-12-14 13:00:00,STOLEN PROPERTY,RECEIVING STOLEN PROPERTY,Sunday,INGLESIDE,NONE,400 Block of LOSPALMOS DR,-122.451789219157,37.7344301822995
37.7921976067413,-122.41499359364401,,Point,2008-04-30 00:01:00,FRAUD,"CREDIT CARD, THEFT BY USE OF",Wednesday,CENTRAL,NONE,1300 Block of SACRAMENTO ST,-122.41499359364401,37.7921976067413
37.782664870999,-122.438053867276,,Point,2004-12-12 00:01:00,VANDALISM,"MALICIOUS MISCHIEF, VANDALISM OF VEHICLES",Sunday,PARK,NONE,2000 Block of OFARRELL ST,-122.438053867276,37.782664870999
37.7142089386085,-122.436177137685,,Point,2008-09-01 07:55:00,OTHER OFFENSES,PAROLE VIOLATION,Monday,INGLESIDE,"ARREST, BOOKED",GENEVA AV / NAPLES ST,-122.436177137685,37.7142089386085
37.7378344818347,-122.38628068833,,Point,2013-08-20 21:00:00,LARCENY/THEFT,GRAND THEFT FROM LOCKED AUTO,Tuesday,BAYVIEW,NONE,1400 Block of INNES AV,-122.38628068833,37.7378344818347
37.7597252282091,-122.411572788477,,Point,2010-11-17 08:00:00,ASSAULT,BATTERY,Wednesday,MISSION,NONE,700 Block of ALABAMA ST,-122.411572788477,37.7597252282091
37.71317190247171,-122.459023622401,,Point,2003-07-21 19:09:00,WARRANTS,WARRANT ARREST,Monday,TARAVAL,"ARREST, BOOKED",CAPITOL AV / BROAD ST,-122.459023622401,37.71317190247171
37.78328787354911,-122.408953598286,,Point,2005-07-13 20:40:00,ASSAULT,BATTERY,Wednesday,SOUTHERN,"ARREST, BOOKED",MASON ST / TURK ST,-122.408953598286,37.78328787354911
37.787515874162295,-122.407434989523,,Point,2010-11-20 15:00:00,LARCENY/THEFT,GRAND THEFT PICKPOCKET,Saturday,CENTRAL,NONE,200 Block of GEARY ST,-122.407434989523,37.787515874162295
37.782072931180004,-122.41222416474301,,Point,2003-02-20 15:03:00,WARRANTS,WARRANT ARREST,Thursday,TENDERLOIN,"ARREST, BOOKED",JONES ST / GOLDEN GATE AV,-122.41222416474301,37.782072931180004
37.7833088100623,-122.439480772215,,Point,2005-07-29 15:30:00,OTHER OFFENSES,"DRIVERS LICENSE, SUSPENDED OR REVOKED",Friday,PARK,"ARREST, CITED",GEARY BL / DIVISADERO ST,-122.439480772215,37.7833088100623
37.7723635199759,-122.432256333845,,Point,2005-02-26 01:00:00,BURGLARY,"BURGLARY OF APARTMENT HOUSE, FORCIBLE ENTRY",Saturday,NORTHERN,NONE,300 Block of STEINER ST,-122.432256333845,37.7723635199759
37.784089036686794,-122.411800134753,,Point,2008-09-15 13:15:00,DRUG/NARCOTIC,POSSESSION OF BASE/ROCK COCAINE FOR SALE,Monday,TENDERLOIN,"ARREST, BOOKED",200 Block of EDDY ST,-122.411800134753,37.784089036686794
37.7838344374141,-122.412930522059,,Point,2005-03-24 00:17:00,OTHER OFFENSES,VIOLATION OF MUNICIPAL POLICE CODE,Thursday,TENDERLOIN,"ARREST, BOOKED",300 Block of EDDY ST,-122.412930522059,37.7838344374141
37.76119776776321,-122.50913483919099,,Point,2011-04-06 09:40:00,ASSAULT,BATTERY,Wednesday,TARAVAL,EXCEPTIONAL CLEARANCE,1300 Block of LA PLAYA ST,-122.50913483919099,37.76119776776321
37.7642837095036,-122.418549940195,,Point,2014-03-03 09:54:00,NON-CRIMINAL,"AIDED CASE, MENTAL DISTURBED",Monday,MISSION,PSYCHOPATHIC CASE,100 Block of CAPP ST,-122.418549940195,37.7642837095036
37.770708123173705,-122.425963017309,,Point,2010-01-17 18:00:00,ASSAULT,BATTERY,Sunday,NORTHERN,NONE,0 Block of HERMANN ST,-122.425963017309,37.770708123173705
37.775420706711,-122.40340479147899,,Point,2003-04-16 00:01:00,FRAUD,"FALSE PRETENSES, GRAND THEFT",Wednesday,SOUTHERN,NONE,800 Block of BRYANT ST,-122.40340479147899,37.775420706711
37.8024274082827,-122.41336662130699,,Point,2009-10-15 17:18:00,LARCENY/THEFT,GRAND THEFT FROM PERSON,Thursday,CENTRAL,NONE,800 Block of COLUMBUS AV,-122.41336662130699,37.8024274082827
37.7775400881071,-122.419594769418,,Point,2003-05-14 12:00:00,NON-CRIMINAL,"DEATH REPORT, CAUSE UNKNOWN",Wednesday,NORTHERN,NONE,200 Block of VAN NESS AV,-122.419594769418,37.7775400881071
37.7799338672319,-122.40079994791401,,Point,2012-08-21 19:50:00,VANDALISM,"MALICIOUS MISCHIEF, VANDALISM OF VEHICLES",Tuesday,SOUTHERN,NONE,800 Block of HARRISON ST,-122.40079994791401,37.7799338672319
37.7862599043196,-122.41313571574301,,Point,2004-12-20 16:00:00,FORGERY/COUNTERFEITING,"MONEY, CHANGING FACE AMOUNT",Monday,TENDERLOIN,PROSECUTED BY OUTSIDE AGENCY,500 Block of JONES ST,-122.41313571574301,37.7862599043196
37.785412112566796,-122.430579280128,,Point,2012-06-02 17:00:00,LARCENY/THEFT,PETTY THEFT FROM A BUILDING,Saturday,NORTHERN,NONE,1700 Block of POST ST,-122.430579280128,37.785412112566796
37.764357751686,-122.41747701285,,Point,2013-09-21 06:20:00,ASSAULT,"BATTERY, FORMER SPOUSE OR DATING RELATIONSHIP",Saturday,MISSION,COMPLAINANT REFUSES TO PROSECUTE,500 Block of SOUTH VAN NESS AV,-122.41747701285,37.764357751686
37.7562822236574,-122.417802962628,,Point,2012-05-02 01:25:00,NON-CRIMINAL,"STAY AWAY OR COURT ORDER, NON-DV RELATED",Wednesday,MISSION,"ARREST, BOOKED",600 Block of CAPP ST,-122.417802962628,37.7562822236574
37.71338111955721,-122.434075846783,,Point,2015-04-19 13:35:00,SUSPICIOUS OCC,INVESTIGATIVE DETENTION,Sunday,INGLESIDE,NONE,1300 Block of GENEVA AV,-122.434075846783,37.71338111955721
37.7967163158276,-122.40158496817101,,Point,2010-10-20 02:47:00,BURGLARY,"BURGLARY OF RESIDENCE, UNLAWFUL ENTRY",Wednesday,CENTRAL,NONE,300 Block of JACKSON ST,-122.40158496817101,37.7967163158276
37.7816150265786,-122.40942036456,,Point,2003-01-11 01:38:00,OTHER OFFENSES,RECKLESS DRIVING,Saturday,SOUTHERN,"ARREST, BOOKED",0 Block of 6TH ST,-122.40942036456,37.7816150265786
37.769247063207004,-122.426955631709,,Point,2009-09-15 12:30:00,LARCENY/THEFT,PETTY THEFT WITH PRIOR,Tuesday,MISSION,"ARREST, BOOKED",2000 Block of MARKET ST,-122.426955631709,37.769247063207004
37.7503251821179,-122.409905594619,,Point,2005-01-28 13:00:00,BURGLARY,"BURGLARY, HOT PROWL, FORCIBLE ENTRY",Friday,MISSION,NONE,1300 Block of FLORIDA ST,-122.409905594619,37.7503251821179
37.7650501214714,-122.419671780303,,Point,2005-01-29 20:00:00,NON-CRIMINAL,LOST PROPERTY,Saturday,MISSION,NONE,16TH ST / MISSION ST,-122.419671780303,37.7650501214714
37.782731788465796,-122.40648197275,,Point,2005-05-17 01:07:00,DRUG/NARCOTIC,POSSESSION OF COCAINE FOR SALES,Tuesday,SOUTHERN,"ARREST, BOOKED",5TH ST / MISSION ST,-122.40648197275,37.782731788465796
37.7121502932531,-122.41714480239901,,Point,2007-01-24 17:41:00,RECOVERED VEHICLE,RECOVERED VEHICLE - STOLEN OUTSIDE SF,Wednesday,INGLESIDE,NONE,1800 Block of SUNNYDALE AV,-122.41714480239901,37.7121502932531
37.7298874272325,-122.38219258397301,,Point,2014-03-08 18:14:00,SUSPICIOUS OCC,INVESTIGATIVE DETENTION,Saturday,BAYVIEW,NOT PROSECUTED,1100 Block of OAKDALE AV,-122.38219258397301,37.7298874272325
37.8057739875696,-122.41280375299999,,Point,2011-02-27 15:30:00,LARCENY/THEFT,GRAND THEFT PICKPOCKET,Sunday,CENTRAL,NONE,300 Block of BAY ST,-122.41280375299999,37.8057739875696
37.7804777480279,-122.41251534136299,,Point,2004-08-18 10:02:00,FRAUD,FALSE ID TO PEACE OFFICER,Wednesday,SOUTHERN,"ARREST, BOOKED",7TH ST / MARKET ST,-122.41251534136299,37.7804777480279
37.805030152869705,-122.417867154077,,Point,2006-12-15 00:30:00,TRESPASS,TRESPASSING,Friday,CENTRAL,"ARREST, BOOKED",600 Block of BAY ST,-122.417867154077,37.805030152869705
37.7306902868986,-122.448860461572,,Point,2003-07-26 12:00:00,LARCENY/THEFT,GRAND THEFT OF PROPERTY,Saturday,INGLESIDE,NONE,HEARST AV / FOERSTER ST,-122.448860461572,37.7306902868986
37.7640368477357,-122.466309668211,,Point,2003-09-20 18:30:00,MISSING PERSON,FOUND PERSON,Saturday,TARAVAL,NONE,9TH AV / IRVING ST,-122.466309668211,37.7640368477357
37.7774104345191,-122.46134651102699,,Point,2014-04-04 18:00:00,VEHICLE THEFT,STOLEN TRUCK,Friday,RICHMOND,NONE,200 Block of BALBOA ST,-122.46134651102699,37.7774104345191
37.78495312416121,-122.42799115191099,,Point,2013-06-12 22:02:00,LARCENY/THEFT,GRAND THEFT FROM PERSON,Wednesday,NORTHERN,NONE,GEARY BL / LAGUNA ST,-122.42799115191099,37.78495312416121
37.745451137530296,-122.423395535089,,Point,2003-06-01 19:38:00,ASSAULT,BATTERY,Sunday,INGLESIDE,NONE,0 Block of 28TH ST,-122.423395535089,37.745451137530296
37.786734218498296,-122.405895369887,,Point,2012-11-12 15:59:00,LARCENY/THEFT,PETTY THEFT SHOPLIFTING,Monday,TENDERLOIN,"ARREST, BOOKED",0 Block of OFARRELL ST,-122.405895369887,37.786734218498296
37.775420706711,-122.40340479147899,,Point,2009-09-03 10:00:00,NON-CRIMINAL,LOST PROPERTY,Thursday,SOUTHERN,NONE,800 Block of BRYANT ST,-122.40340479147899,37.775420706711
37.781862188279206,-122.413869632561,,Point,2005-01-15 14:20:00,DRUG/NARCOTIC,"CONTROLLED SUBSTANCE VIOLATION, LOITERING FOR",Saturday,TENDERLOIN,"ARREST, BOOKED",LEAVENWORTH ST / GOLDEN GATE AV,-122.413869632561,37.781862188279206
37.7210571460375,-122.475222189932,,Point,2010-12-13 14:15:00,LARCENY/THEFT,GRAND THEFT FROM PERSON,Monday,TARAVAL,NONE,19TH AV / HOLLOWAY AV,-122.475222189932,37.7210571460375
37.7330103867416,-122.416517427405,,Point,2007-04-22 09:31:00,TRESPASS,TRESPASSING,Sunday,INGLESIDE,"ARREST, BOOKED",800 Block of ELLSWORTH ST,-122.416517427405,37.7330103867416
37.7586968166489,-122.41796448376002,,Point,2013-02-20 19:20:00,PROSTITUTION,PANDERING,Wednesday,MISSION,NONE,20TH ST / CAPP ST,-122.41796448376002,37.7586968166489
37.80238450205921,-122.40071180486,,Point,2012-05-18 17:30:00,SUSPICIOUS OCC,INVESTIGATIVE DETENTION,Friday,SOUTHERN,NONE,700 Block of THE EMBARCADEROSOUTH ST,-122.40071180486,37.80238450205921
37.752628650955295,-122.392162163015,,Point,2010-06-18 11:30:00,SUSPICIOUS OCC,SUSPICIOUS OCCURRENCE,Friday,BAYVIEW,NONE,1300 Block of 25TH ST,-122.392162163015,37.752628650955295
37.7788598479471,-122.408275664977,,Point,2009-04-18 02:00:00,VEHICLE THEFT,STOLEN AUTOMOBILE,Saturday,SOUTHERN,NONE,RUSS ST / HOWARD ST,-122.408275664977,37.7788598479471
37.7290228660545,-122.40204615386699,,Point,2006-07-24 22:00:00,ASSAULT,THREATS AGAINST LIFE,Monday,BAYVIEW,NONE,1900 Block of DONNER AV,-122.40204615386699,37.7290228660545
37.7301243732434,-122.39163276711001,,Point,2008-11-13 21:30:00,VEHICLE THEFT,STOLEN AUTOMOBILE,Thursday,BAYVIEW,NONE,1900 Block of LANE ST,-122.39163276711001,37.7301243732434
37.7817492235226,-122.396381836885,,Point,2012-11-01 01:30:00,LARCENY/THEFT,GRAND THEFT FROM LOCKED AUTO,Thursday,SOUTHERN,NONE,STILLMAN ST / 3RD ST,-122.396381836885,37.7817492235226
37.7822305870036,-122.41029351969,,Point,2007-09-19 09:30:00,LARCENY/THEFT,GRAND THEFT FROM LOCKED AUTO,Wednesday,SOUTHERN,NONE,GOLDEN GATE AV / TAYLOR ST,-122.41029351969,37.7822305870036
37.77895976335829,-122.41071806030399,,Point,2011-01-11 21:17:00,ASSAULT,SHOOTING INTO INHABITED DWELLING OR OCCUPIED VEHICLE,Tuesday,SOUTHERN,UNFOUNDED,100 Block of 7TH ST,-122.41071806030399,37.77895976335829
37.78677548206471,-122.420775721444,,Point,2006-06-16 18:00:00,VANDALISM,"MALICIOUS MISCHIEF, VANDALISM OF VEHICLES",Friday,NORTHERN,NONE,1100 Block of POST ST,-122.420775721444,37.78677548206471
37.7803348745141,-122.43723610190399,,Point,2014-04-03 09:00:00,ASSAULT,THREATS AGAINST LIFE,Thursday,PARK,NONE,1100 Block of SCOTT ST,-122.43723610190399,37.7803348745141
37.7839916768161,-122.408068345148,,Point,2013-03-04 18:32:00,LARCENY/THEFT,GRAND THEFT OF PROPERTY,Monday,SOUTHERN,NONE,MARKET ST / 5TH ST,-122.408068345148,37.7839916768161
37.7277502372406,-122.425025030815,,Point,2013-11-03 08:14:00,ROBBERY,ROBBERY ON THE STREET WITH A GUN,Sunday,INGLESIDE,NONE,0 Block of VIENNA ST,-122.425025030815,37.7277502372406
37.8096707013239,-122.365565425353,,Point,2009-07-08 18:00:00,VANDALISM,"MALICIOUS MISCHIEF, VANDALISM OF VEHICLES",Wednesday,SOUTHERN,NONE,200 Block of INTERSTATE80 HY,-122.365565425353,37.8096707013239
37.788719868790395,-122.402070243235,,Point,2003-04-18 11:30:00,FRAUD,"CREDIT CARD, THEFT BY USE OF",Friday,SOUTHERN,NONE,MARKET ST / NEW MONTGOMERY ST,-122.402070243235,37.788719868790395
37.71142553008821,-122.445185331603,,Point,2012-02-21 15:00:00,VANDALISM,"MALICIOUS MISCHIEF, VANDALISM",Tuesday,INGLESIDE,NONE,600 Block of MORSE ST,-122.445185331603,37.71142553008821
37.803238580290106,-122.401985216772,,Point,2010-02-10 06:45:00,LARCENY/THEFT,GRAND THEFT BICYCLE,Wednesday,CENTRAL,NONE,BATTERY ST / GREENWICH ST,-122.401985216772,37.803238580290106
37.7586986268446,-122.502581096469,,Point,2006-07-12 12:30:00,MISSING PERSON,FOUND PERSON,Wednesday,TARAVAL,NONE,43RD AV / KIRKHAM ST,-122.502581096469,37.7586986268446
37.7081535998314,-122.485736249604,,Point,2014-04-29 13:40:00,OTHER OFFENSES,TRAFFIC VIOLATION ARREST,Tuesday,TARAVAL,"ARREST, CITED",LAKE MERCED BL / JOHNMUIR DR,-122.485736249604,37.7081535998314
37.7815338127589,-122.423918786924,,Point,2005-08-24 13:30:00,LARCENY/THEFT,PETTY THEFT FROM LOCKED AUTO,Wednesday,NORTHERN,NONE,TURK ST / GOUGH ST,-122.423918786924,37.7815338127589
37.7846480308387,-122.399899436982,,Point,2014-06-29 13:26:00,LARCENY/THEFT,GRAND THEFT FROM LOCKED AUTO,Sunday,SOUTHERN,NONE,200 Block of 3RD ST,-122.399899436982,37.7846480308387
37.77832066750421,-122.42488414521401,,Point,2015-04-29 10:40:00,LARCENY/THEFT,PETTY THEFT OF PROPERTY,Wednesday,NORTHERN,NONE,600 Block of OCTAVIA ST,-122.42488414521401,37.77832066750421
37.7476929914445,-122.43366350852699,,Point,2008-10-27 18:00:00,LARCENY/THEFT,PETTY THEFT FROM LOCKED AUTO,Monday,MISSION,NONE,1700 Block of CASTRO ST,-122.43366350852699,37.7476929914445
37.775420706711,-122.40340479147899,,Point,2010-09-20 12:00:00,FRAUD,"CREDIT CARD, THEFT BY USE OF",Monday,SOUTHERN,NONE,800 Block of BRYANT ST,-122.40340479147899,37.775420706711
37.780468926847895,-122.41694856587601,,Point,2009-02-06 16:05:00,SUSPICIOUS OCC,SUSPICIOUS OCCURRENCE,Friday,NORTHERN,NOT PROSECUTED,LARKIN ST / MCALLISTER ST,-122.41694856587601,37.780468926847895
37.775420706711,-122.40340479147899,,Point,2003-05-14 09:30:00,NON-CRIMINAL,LOST PROPERTY,Wednesday,SOUTHERN,NONE,800 Block of BRYANT ST,-122.40340479147899,37.775420706711
37.75353512427621,-122.39720193799299,,Point,2003-12-11 10:14:00,ASSAULT,INFLICT INJURY ON COHABITEE,Thursday,BAYVIEW,"ARREST, BOOKED",1000 Block of CONNECTICUT ST,-122.39720193799299,37.75353512427621
37.7874298723673,-122.398972966106,,Point,2006-12-02 17:00:00,BURGLARY,"BURGLARY, FORCIBLE ENTRY",Saturday,SOUTHERN,NONE,100 Block of 2ND ST,-122.398972966106,37.7874298723673
37.7867889414482,-122.39044241737801,,Point,2012-10-31 14:52:00,SUSPICIOUS OCC,SUSPICIOUS OCCURRENCE,Wednesday,SOUTHERN,NONE,400 Block of BEALE ST,-122.39044241737801,37.7867889414482
37.7833862379382,-122.409853729941,,Point,2011-10-04 13:36:00,DRUNKENNESS,UNDER INFLUENCE OF ALCOHOL IN A PUBLIC PLACE,Tuesday,TENDERLOIN,"ARREST, CITED",0 Block of TURK ST,-122.409853729941,37.7833862379382
37.78331075399689,-122.41753069698,,Point,2012-02-11 12:00:00,NON-CRIMINAL,LOST PROPERTY,Saturday,NORTHERN,NONE,LARKIN ST / EDDY ST,-122.41753069698,37.78331075399689
37.7869408998805,-122.411518820359,,Point,2010-01-26 12:15:00,VEHICLE THEFT,STOLEN TRUCK,Tuesday,CENTRAL,NONE,GEARY ST / TAYLOR ST,-122.411518820359,37.7869408998805
37.7814240041364,-122.42812986551901,,Point,2007-05-16 08:30:00,BURGLARY,"BURGLARY OF RESIDENCE, FORCIBLE ENTRY",Wednesday,NORTHERN,NONE,600 Block of LARCH ST,-122.42812986551901,37.7814240041364
37.779514030063,-122.413564091744,,Point,2009-04-27 11:33:00,DRUG/NARCOTIC,POSSESSION OF CONTROLLED SUBSTANCE,Monday,SOUTHERN,"ARREST, BOOKED",1100 Block of MARKET ST,-122.413564091744,37.779514030063
37.764067865158786,-122.40353768137301,,Point,2004-08-07 07:14:00,OTHER OFFENSES,TRAFFIC VIOLATION,Saturday,BAYVIEW,"ARREST, CITED",400 Block of KANSAS ST,-122.40353768137301,37.764067865158786
37.7907638589303,-122.390094248247,,Point,2012-09-09 22:49:00,SUSPICIOUS OCC,INVESTIGATIVE DETENTION,Sunday,SOUTHERN,NONE,FOLSOM ST / THE EMBARCADEROSOUTH ST,-122.390094248247,37.7907638589303
37.7809039696758,-122.411979487494,,Point,2010-02-22 01:04:00,SUSPICIOUS OCC,SUSPICIOUS ACT TOWARDS FEMALE,Monday,SOUTHERN,"ARREST, CITED",JONES ST / MCALLISTER ST,-122.411979487494,37.7809039696758
37.775420706711,-122.40340479147899,,Point,2012-10-06 00:01:00,SEX OFFENSES FORCIBLE,ASSAULT TO RAPE WITH BODILY FORCE,Saturday,SOUTHERN,DISTRICT ATTORNEY REFUSES TO PROSECUTE,800 Block of BRYANT ST,-122.40340479147899,37.775420706711
37.77073127123,-122.448769079965,,Point,2009-01-10 22:44:00,VANDALISM,"MALICIOUS MISCHIEF, VANDALISM OF VEHICLES",Saturday,PARK,NONE,PAGE ST / CLAYTON ST,-122.448769079965,37.77073127123
37.7727234013654,-122.410416664036,,Point,2014-05-17 09:24:00,WARRANTS,PROBATION SEARCH,Saturday,SOUTHERN,"ARREST, BOOKED",300 Block of 9TH ST,-122.410416664036,37.7727234013654
37.781906547674105,-122.432355641362,,Point,2011-03-23 08:00:00,FRAUD,"CREDIT CARD, THEFT BY USE OF",Wednesday,NORTHERN,NONE,1300 Block of FILLMORE ST,-122.432355641362,37.781906547674105
37.7586968166489,-122.41796448376002,,Point,2014-04-20 03:31:00,DISORDERLY CONDUCT,COMMITTING PUBLIC NUISANCE,Sunday,MISSION,"ARREST, BOOKED",20TH ST / CAPP ST,-122.41796448376002,37.7586968166489
37.7907105245241,-122.43420504401399,,Point,2007-06-29 13:30:00,VEHICLE THEFT,STOLEN AUTOMOBILE,Friday,NORTHERN,NONE,CLAY ST / FILLMORE ST,-122.43420504401399,37.7907105245241
37.7822458223917,-122.446612978839,,Point,2007-01-09 10:00:00,FRAUD,"TRICK AND DEVICE, GRAND THEFT",Tuesday,PARK,"ARREST, BOOKED",2600 Block of GEARY BL,-122.446612978839,37.7822458223917
37.783371636824896,-122.40738268650601,,Point,2006-11-17 18:30:00,LARCENY/THEFT,GRAND THEFT FROM LOCKED AUTO,Friday,SOUTHERN,NONE,0 Block of 5TH ST,-122.40738268650601,37.783371636824896
37.778124778322,-122.391845617192,,Point,2013-11-12 22:00:00,LARCENY/THEFT,GRAND THEFT FROM LOCKED AUTO,Tuesday,SOUTHERN,NONE,3RD ST / KING ST,-122.391845617192,37.778124778322
37.7716188347231,-122.441371881622,,Point,2009-05-13 20:19:00,WARRANTS,ENROUTE TO OUTSIDE JURISDICTION,Wednesday,PARK,"ARREST, BOOKED",1200 Block of PAGE ST,-122.441371881622,37.7716188347231
37.7520431532199,-122.39883410229099,,Point,2004-08-18 21:00:00,VANDALISM,"MALICIOUS MISCHIEF, VANDALISM OF VEHICLES",Wednesday,BAYVIEW,NONE,25TH ST / LITTLEFIELD TR,-122.39883410229099,37.7520431532199
37.7739922064262,-122.449351475447,,Point,2010-03-11 23:00:00,VANDALISM,"MALICIOUS MISCHIEF, VANDALISM",Thursday,PARK,NONE,100 Block of CLAYTON ST,-122.449351475447,37.7739922064262
37.7842860480389,-122.416893710739,,Point,2009-02-08 22:21:00,VANDALISM,"MALICIOUS MISCHIEF, VANDALISM",Sunday,TENDERLOIN,NONE,600 Block of ELLIS ST,-122.416893710739,37.7842860480389
37.7131072321423,-122.387833652325,,Point,2011-12-04 11:00:00,NON-CRIMINAL,LOST PROPERTY,Sunday,BAYVIEW,NONE,600 Block of JAMESTOWN AV,-122.387833652325,37.7131072321423
37.7111618712449,-122.386452097316,,Point,2014-05-17 02:30:00,ROBBERY,"ROBBERY, BODILY FORCE",Saturday,BAYVIEW,NONE,JAMESTOWN AV / HARNEY WY,-122.386452097316,37.7111618712449
37.7239948205264,-122.40201892944799,,Point,2007-01-26 09:30:00,NON-CRIMINAL,LOST PROPERTY,Friday,BAYVIEW,NONE,2900 Block of SAN BRUNO AV,-122.40201892944799,37.7239948205264
37.789920001484106,-122.422062730264,,Point,2014-07-10 10:45:00,FORGERY/COUNTERFEITING,"FORGERY, NOTES",Thursday,NORTHERN,NONE,1500 Block of VANNESS AV,-122.422062730264,37.789920001484106
37.7846576329256,-122.414433155063,,Point,2007-05-02 08:37:00,WEAPON LAWS,POSS OF LOADED FIREARM,Wednesday,TENDERLOIN,"ARREST, BOOKED",ELLIS ST / LEAVENWORTH ST,-122.414433155063,37.7846576329256
37.7777816676305,-122.406629219771,,Point,2003-05-31 19:00:00,VEHICLE THEFT,"VEHICLE, RECOVERED, OTHER VEHICLE",Saturday,SOUTHERN,NONE,1000 Block of FOLSOM ST,-122.406629219771,37.7777816676305
37.7811403162951,-122.482592898737,,Point,2014-11-14 22:00:00,LARCENY/THEFT,PETTY THEFT FROM LOCKED AUTO,Friday,RICHMOND,NONE,300 Block of 23RD AV,-122.482592898737,37.7811403162951
37.7871027247566,-122.388007401911,,Point,2007-08-22 23:15:00,LARCENY/THEFT,GRAND THEFT FROM LOCKED AUTO,Wednesday,SOUTHERN,NONE,BRYANT ST / THE EMBARCADEROSOUTH ST,-122.388007401911,37.7871027247566
37.770450484501,-122.428427922555,,Point,2008-11-14 19:50:00,ROBBERY,"ROBBERY, BODILY FORCE",Friday,NORTHERN,NONE,WEBSTER ST / HERMANN ST,-122.428427922555,37.770450484501
37.78247564227721,-122.424109315499,,Point,2012-11-03 21:00:00,LARCENY/THEFT,PETTY THEFT FROM LOCKED AUTO,Saturday,NORTHERN,NONE,GOUGH ST / EDDY ST,-122.424109315499,37.78247564227721
37.7746181158166,-122.444568876114,,Point,2012-04-07 03:05:00,ASSAULT,BATTERY WITH SERIOUS INJURIES,Saturday,PARK,"ARREST, BOOKED",500 Block of CENTRAL AV,-122.444568876114,37.7746181158166
37.7848750530811,-122.442364696255,,Point,2013-02-04 18:50:00,WEAPON LAWS,POSSESSION OF AIR GUN,Monday,RICHMOND,JUVENILE BOOKED,2500 Block of SUTTER ST,-122.442364696255,37.7848750530811
37.7610307697076,-122.390443684963,,Point,2013-08-05 19:50:00,NON-CRIMINAL,"AIDED CASE, MENTAL DISTURBED",Monday,BAYVIEW,PSYCHOPATHIC CASE,700 Block of MINNESOTA ST,-122.390443684963,37.7610307697076
37.7857828233879,-122.42815114016199,,Point,2010-05-22 03:39:00,DRUG/NARCOTIC,POSSESSION OF MARIJUANA FOR SALES,Saturday,NORTHERN,"ARREST, BOOKED",POST ST / LAGUNA ST,-122.42815114016199,37.7857828233879
37.7922168233794,-122.42945011546699,,Point,2013-02-05 18:45:00,LARCENY/THEFT,GRAND THEFT FROM UNLOCKED AUTO,Tuesday,NORTHERN,NONE,WASHINGTON ST / LAGUNA ST,-122.42945011546699,37.7922168233794
37.775420706711,-122.40340479147899,,Point,2014-01-07 13:55:00,OTHER OFFENSES,"DRIVERS LICENSE, SUSPENDED OR REVOKED",Tuesday,SOUTHERN,"ARREST, CITED",800 Block of BRYANT ST,-122.40340479147899,37.775420706711
37.7209512733426,-122.45811135601002,,Point,2009-06-08 20:00:00,LARCENY/THEFT,GRAND THEFT FROM LOCKED AUTO,Monday,TARAVAL,NONE,100 Block of MIRAMAR AV,-122.45811135601002,37.7209512733426
37.7231327911687,-122.429383644732,,Point,2014-10-13 14:00:00,WEAPON LAWS,EXHIBITING DEADLY WEAPON IN A THREATING MANNER,Monday,INGLESIDE,NONE,300 Block of NAPLES ST,-122.429383644732,37.7231327911687
37.7866770011071,-122.414010814727,,Point,2014-02-09 04:00:00,BURGLARY,"BURGLARY, HOT PROWL, UNLAWFUL ENTRY",Sunday,CENTRAL,NONE,600 Block of GEARY ST,-122.414010814727,37.7866770011071
37.7693018391199,-122.43079640459601,,Point,2005-03-24 11:45:00,VEHICLE THEFT,"VEHICLE, RECOVERED, AUTO",Thursday,MISSION,NONE,400 Block of DUBOCE AV,-122.43079640459601,37.7693018391199
37.7940589735021,-122.407904730522,,Point,2006-02-09 00:49:00,ASSAULT,AGGRAVATED ASSAULT WITH A DEADLY WEAPON,Thursday,CENTRAL,NONE,STOCKTON ST / CLAY ST,-122.407904730522,37.7940589735021
37.773817829478105,-122.454403066889,,Point,2006-01-28 00:30:00,ROBBERY,"ROBBERY ON THE STREET, STRONGARM",Saturday,PARK,NONE,400 Block of STANYAN ST,-122.454403066889,37.773817829478105
37.7714793397231,-122.435375683708,,Point,2012-10-15 06:44:00,OTHER OFFENSES,POSSESSION OF BURGLARY TOOLS,Monday,PARK,"ARREST, BOOKED",HAIGHT ST / SCOTT ST,-122.435375683708,37.7714793397231
37.7814832523537,-122.420691386664,,Point,2004-02-02 19:00:00,FRAUD,"TRICK AND DEVICE, PETTY THEFT",Monday,NORTHERN,NONE,600 Block of VAN NESS AV,-122.420691386664,37.7814832523537
37.782731788465796,-122.40648197275,,Point,2003-08-09 18:00:00,LARCENY/THEFT,GRAND THEFT FROM LOCKED AUTO,Saturday,SOUTHERN,NONE,5TH ST / MISSION ST,-122.40648197275,37.782731788465796
37.75474851103979,-122.416557578218,,Point,2013-02-18 14:03:00,ASSAULT,THREATENING PHONE CALL(S),Monday,MISSION,NONE,1100 Block of SOUTH VAN NESS AV,-122.416557578218,37.75474851103979
37.779514030063,-122.413564091744,,Point,2012-06-13 04:45:00,OTHER OFFENSES,PROBATION VIOLATION,Wednesday,SOUTHERN,"ARREST, BOOKED",1100 Block of MARKET ST,-122.413564091744,37.779514030063
37.773130623238,-122.41091901601101,,Point,2003-03-18 18:00:00,OTHER OFFENSES,PROBATION VIOLATION,Tuesday,SOUTHERN,"ARREST, BOOKED",300 Block of 9TH ST,-122.41091901601101,37.773130623238
37.7843533426344,-122.432914603466,,Point,2005-06-15 05:00:00,NON-CRIMINAL,LOST PROPERTY,Wednesday,NORTHERN,NONE,GEARY BL / FILLMORE ST,-122.432914603466,37.7843533426344
37.733588480771395,-122.390978248429,,Point,2014-01-06 10:30:00,FORGERY/COUNTERFEITING,"FORGERY, NOTES",Monday,BAYVIEW,NONE,4900 Block of 3RD ST,-122.390978248429,37.733588480771395
37.7498034557225,-122.395310455047,,Point,2003-09-01 16:00:00,VEHICLE THEFT,"VEHICLE, RECOVERED, AUTO",Monday,BAYVIEW,NONE,CESAR CHAVEZ ST / MISSOURI ST,-122.395310455047,37.7498034557225
37.7827931070777,-122.414056291898,,Point,2004-10-27 20:30:00,DRUG/NARCOTIC,POSSESSION OF BASE/ROCK COCAINE FOR SALE,Wednesday,TENDERLOIN,"ARREST, BOOKED",TURK ST / LEAVENWORTH ST,-122.414056291898,37.7827931070777
37.7914655329997,-122.41328887250799,,Point,2011-05-04 04:28:00,ASSAULT,STALKING,Wednesday,CENTRAL,NONE,1100 Block of CALIFORNIA ST,-122.41328887250799,37.7914655329997
37.775420706711,-122.40340479147899,,Point,2007-02-22 22:30:00,NON-CRIMINAL,LOST PROPERTY,Thursday,SOUTHERN,NONE,800 Block of BRYANT ST,-122.40340479147899,37.775420706711
37.7539653995399,-122.40063195479999,,Point,2006-02-09 16:00:00,LARCENY/THEFT,PETTY THEFT FROM LOCKED AUTO,Thursday,BAYVIEW,NONE,1200 Block of DEHARO ST,-122.40063195479999,37.7539653995399
37.7775118895695,-122.418045452768,,Point,2010-07-04 01:04:00,DRIVING UNDER THE INFLUENCE,"DRIVING WHILE UNDER THE INFLUENCE OF ALCOHOL, W/INJURY",Sunday,NORTHERN,"ARREST, CITED",HAYES ST / POLK ST,-122.418045452768,37.7775118895695
37.775420706711,-122.40340479147899,,Point,2011-06-14 13:01:00,WARRANTS,WARRANT ARREST,Tuesday,SOUTHERN,"ARREST, CITED",800 Block of BRYANT ST,-122.40340479147899,37.775420706711
37.7859103612545,-122.396140740869,,Point,2006-05-21 07:30:00,VANDALISM,"MALICIOUS MISCHIEF, VANDALISM OF VEHICLES",Sunday,SOUTHERN,NONE,500 Block of FOLSOM ST,-122.396140740869,37.7859103612545
37.7873381901532,-122.423404604063,,Point,2009-01-25 15:00:00,LARCENY/THEFT,PETTY THEFT FROM LOCKED AUTO,Sunday,NORTHERN,NONE,FRANKLIN ST / SUTTER ST,-122.423404604063,37.7873381901532
37.788177320778395,-122.42100586083299,,Point,2014-01-25 01:45:00,LARCENY/THEFT,PETTY THEFT FROM LOCKED AUTO,Saturday,NORTHERN,NONE,100 Block of FERN ST,-122.42100586083299,37.788177320778395
37.78344043211771,-122.396265814237,,Point,2014-06-13 19:15:00,LARCENY/THEFT,GRAND THEFT FROM UNLOCKED AUTO,Friday,SOUTHERN,NONE,HARRISON ST / HAWTHORNE ST,-122.396265814237,37.78344043211771
37.776510259917295,-122.40966273139799,,Point,2011-07-11 13:00:00,LARCENY/THEFT,PETTY THEFT OF PROPERTY,Monday,SOUTHERN,NONE,0 Block of RAUSCH ST,-122.40966273139799,37.776510259917295
37.795464383508,-122.41829457149299,,Point,2010-05-09 17:00:00,VANDALISM,"MALICIOUS MISCHIEF, VANDALISM",Sunday,CENTRAL,NONE,HYDE ST / PACIFIC AV,-122.41829457149299,37.795464383508
37.763495437314404,-122.418486296575,,Point,2008-02-18 07:00:00,LOITERING,LOITERING,Monday,MISSION,"ARREST, CITED",CAPP ST / 17TH ST,-122.418486296575,37.763495437314404
37.739146095955896,-122.416820868342,,Point,2006-05-19 11:45:00,LARCENY/THEFT,PETTY THEFT FROM A BUILDING,Friday,INGLESIDE,NONE,400 Block of CORTLAND AV,-122.416820868342,37.739146095955896
37.7539653995399,-122.40063195479999,,Point,2006-02-12 06:30:00,LARCENY/THEFT,PETTY THEFT FROM LOCKED AUTO,Sunday,BAYVIEW,NONE,1200 Block of DEHARO ST,-122.40063195479999,37.7539653995399
37.7381857061106,-122.47958980257098,,Point,2005-12-28 02:40:00,VANDALISM,"MALICIOUS MISCHIEF, VANDALISM",Wednesday,TARAVAL,NONE,2600 Block of 23RD AV,-122.47958980257098,37.7381857061106
37.7868262082156,-122.41993011161101,,Point,2007-11-15 10:00:00,ASSAULT,BATTERY,Thursday,NORTHERN,NONE,POST ST / POLK ST,-122.41993011161101,37.7868262082156
37.7655914079989,-122.474046481117,,Point,2003-08-04 17:30:00,LARCENY/THEFT,PETTY THEFT FROM LOCKED AUTO,Monday,TARAVAL,NONE,LINCOLN WY / 16TH AV,-122.474046481117,37.7655914079989
37.770188881149004,-122.41284187186199,,Point,2006-11-29 14:05:00,WARRANTS,ENROUTE TO OUTSIDE JURISDICTION,Wednesday,SOUTHERN,"ARREST, BOOKED",1500 Block of HARRISON ST,-122.41284187186199,37.770188881149004
37.7105865919411,-122.448100035107,,Point,2009-08-05 22:45:00,OTHER OFFENSES,"DRIVERS LICENSE, SUSPENDED OR REVOKED",Wednesday,INGLESIDE,"ARREST, CITED",5600 Block of MISSION ST,-122.448100035107,37.7105865919411
37.7791387543353,-122.41660769511499,,Point,2009-02-19 19:00:00,LARCENY/THEFT,GRAND THEFT BICYCLE,Thursday,NORTHERN,NONE,100 Block of LARKIN ST,-122.41660769511499,37.7791387543353
37.7377836782445,-122.39594817520201,,Point,2009-03-19 16:48:00,DRUG/NARCOTIC,TRANSPORTATION OF COCAINE,Thursday,BAYVIEW,"ARREST, BOOKED",OAKDALE AV / QUINT ST,-122.39594817520201,37.7377836782445
37.761698710405796,-122.477012148678,,Point,2013-12-15 01:53:00,OTHER OFFENSES,TRAFFIC VIOLATION,Sunday,TARAVAL,"ARREST, CITED",19TH AV / JUDAH ST,-122.477012148678,37.761698710405796
37.7742281136725,-122.50895453983999,,Point,2012-11-04 08:30:00,NON-CRIMINAL,"DEATH REPORT, CAUSE UNKNOWN",Sunday,RICHMOND,NONE,700 Block of 48TH AV,-122.50895453983999,37.7742281136725
37.7085025084425,-122.434310922497,,Point,2010-01-17 19:00:00,ROBBERY,ROBBERY OF A RESIDENCE WITH A GUN,Sunday,INGLESIDE,NONE,500 Block of CORDOVA ST,-122.434310922497,37.7085025084425
37.765021448712396,-122.421075683049,,Point,2004-08-20 18:00:00,VANDALISM,"MALICIOUS MISCHIEF, VANDALISM",Friday,MISSION,NONE,3000 Block of 16TH ST,-122.421075683049,37.765021448712396
37.7711962032376,-122.413287527194,,Point,2012-06-01 21:30:00,LARCENY/THEFT,PETTY THEFT OF PROPERTY,Friday,SOUTHERN,NONE,300 Block of 11TH ST,-122.413287527194,37.7711962032376
37.7981219270604,-122.405087523335,,Point,2004-07-23 02:24:00,WARRANTS,WARRANT ARREST,Friday,CENTRAL,"ARREST, BOOKED",400 Block of BROADWAY ST,-122.405087523335,37.7981219270604
37.785542950304105,-122.396707150502,,Point,2007-10-07 01:22:00,LARCENY/THEFT,GRAND THEFT FROM UNLOCKED AUTO,Sunday,SOUTHERN,"ARREST, BOOKED",FOLSOM ST / 2ND ST,-122.396707150502,37.785542950304105
37.7658510977435,-122.41967661615,,Point,2003-06-11 23:30:00,ASSAULT,BATTERY,Wednesday,MISSION,NONE,1900 Block of MISSION ST,-122.41967661615,37.7658510977435
37.7870372043685,-122.41827417166,,Point,2013-01-26 09:00:00,VEHICLE THEFT,STOLEN AUTOMOBILE,Saturday,NORTHERN,NONE,LARKIN ST / POST ST,-122.41827417166,37.7870372043685
37.7166425332691,-122.47430807989402,,Point,2012-10-17 08:00:00,VANDALISM,"MALICIOUS MISCHIEF, VANDALISM",Wednesday,TARAVAL,NONE,100 Block of CAMBON DR,-122.47430807989402,37.7166425332691
37.7857602954934,-122.409523740653,,Point,2004-10-26 10:43:00,TRESPASS,TRESPASSING,Tuesday,TENDERLOIN,"ARREST, CITED",200 Block of MASON ST,-122.409523740653,37.7857602954934
37.7817511307229,-122.411071423064,,Point,2007-04-04 10:09:00,OTHER OFFENSES,PAROLE VIOLATION,Wednesday,SOUTHERN,"ARREST, BOOKED",1000 Block of MARKET ST,-122.411071423064,37.7817511307229
37.7767052770071,-122.45847211449,,Point,2014-10-27 19:10:00,LARCENY/THEFT,"THEFT, BICYCLE, <$50, NO SERIAL NUMBER",Monday,RICHMOND,NONE,700 Block of ARGUELLO BL,-122.45847211449,37.7767052770071
37.7802343955112,-122.43463123737699,,Point,2011-12-15 12:00:00,OTHER OFFENSES,FALSE PERSONATION TO RECEIVE MONEY OR PROPERTY,Thursday,PARK,NONE,1500 Block of TURK ST,-122.43463123737699,37.7802343955112
37.7859235669023,-122.421254202268,,Point,2005-01-16 23:08:00,DRUNKENNESS,UNDER INFLUENCE OF ALCOHOL IN A PUBLIC PLACE,Sunday,NORTHERN,"ARREST, BOOKED",1100 Block of VANNESS AV,-122.421254202268,37.7859235669023
37.775420706711,-122.40340479147899,,Point,2008-12-27 20:00:00,NON-CRIMINAL,LOST PROPERTY,Saturday,SOUTHERN,NONE,800 Block of BRYANT ST,-122.40340479147899,37.775420706711
37.7119155437754,-122.416000227907,,Point,2009-10-02 23:40:00,OTHER OFFENSES,"DRIVERS LICENSE, SUSPENDED OR REVOKED",Friday,INGLESIDE,"ARREST, CITED",SUNNYDALE AV / HAHN ST,-122.416000227907,37.7119155437754
37.720441658602795,-122.428176364123,,Point,2014-02-05 13:00:00,LARCENY/THEFT,GRAND THEFT FROM LOCKED AUTO,Wednesday,INGLESIDE,NONE,400 Block of MOSCOW ST,-122.428176364123,37.720441658602795
37.7854421872655,-122.421483131371,,Point,2010-10-07 01:00:00,LARCENY/THEFT,PETTY THEFT OF PROPERTY,Thursday,NORTHERN,NONE,1000 Block of VANNESS AV,-122.421483131371,37.7854421872655
37.7168054450449,-122.435887881185,,Point,2008-10-17 09:30:00,NON-CRIMINAL,"AIDED CASE, DOG BITE",Friday,INGLESIDE,NONE,400 Block of ITALY AV,-122.435887881185,37.7168054450449
37.729184579603796,-122.466758005159,,Point,2004-04-27 15:20:00,ASSAULT,BATTERY,Tuesday,TARAVAL,NONE,100 Block of APTOS AV,-122.466758005159,37.729184579603796
37.7614267757472,-122.42607958054501,,Point,2007-11-29 17:50:00,NON-CRIMINAL,"AIDED CASE, MENTAL DISTURBED",Thursday,MISSION,PSYCHOPATHIC CASE,18TH ST / DOLORES ST,-122.42607958054501,37.7614267757472
37.7790783598683,-122.40643005113998,,Point,2003-07-23 12:40:00,VEHICLE THEFT,"VEHICLE, RECOVERED, AUTO",Wednesday,SOUTHERN,NONE,200 Block of 6TH ST,-122.40643005113998,37.7790783598683
37.7731734400875,-122.396759086061,,Point,2005-02-10 07:10:00,BURGLARY,"BURGLARY,STORE UNDER CONSTRUCTION, FORCIBLE ENTRY",Thursday,SOUTHERN,NONE,300 Block of BERRY ST,-122.396759086061,37.7731734400875
37.7809706721824,-122.40871060667101,,Point,2003-04-03 10:00:00,OTHER OFFENSES,TRAFFIC VIOLATION,Thursday,SOUTHERN,"ARREST, CITED",6TH ST / MISSION ST,-122.40871060667101,37.7809706721824
37.739479269320704,-122.387394123158,,Point,2007-05-04 09:00:00,FRAUD,"CREDIT CARD, THEFT BY USE OF",Friday,BAYVIEW,NONE,1500 Block of HUDSON AV,-122.387394123158,37.739479269320704
37.775420706711,-122.40340479147899,,Point,2010-02-14 22:40:00,ASSAULT,THREATS AGAINST LIFE,Sunday,SOUTHERN,NONE,800 Block of BRYANT ST,-122.40340479147899,37.775420706711
37.7681694346175,-122.435637436721,,Point,2010-08-25 21:00:00,NON-CRIMINAL,"AIDED CASE, MENTAL DISTURBED",Wednesday,PARK,PSYCHOPATHIC CASE,0 Block of CASTRO ST,-122.435637436721,37.7681694346175
37.76831480085021,-122.42768226481701,,Point,2013-02-10 04:12:00,DRIVING UNDER THE INFLUENCE,"DRIVING WHILE UNDER THE INFLUENCE OF ALCOHOL, W/INJURY",Sunday,MISSION,NONE,2000 Block of MARKET ST,-122.42768226481701,37.76831480085021
37.76101609120561,-122.419350173229,,Point,2003-08-20 13:45:00,DRUG/NARCOTIC,SALE OF HEROIN,Wednesday,MISSION,"ARREST, BOOKED",2200 Block of MISSION ST,-122.419350173229,37.76101609120561
37.7536265991816,-122.421166525443,,Point,2007-12-28 16:39:00,WARRANTS,WARRANT ARREST,Friday,MISSION,"ARREST, BOOKED",3400 Block of 23RD ST,-122.421166525443,37.7536265991816
37.772986495586295,-122.431481386384,,Point,2009-08-07 21:25:00,ASSAULT,THREATS AGAINST LIFE,Friday,NORTHERN,"ARREST, BOOKED",600 Block of PAGE ST,-122.431481386384,37.772986495586295
37.7915739862746,-122.413310900175,,Point,2004-06-26 11:00:00,NON-CRIMINAL,FOUND PROPERTY,Saturday,CENTRAL,NOT PROSECUTED,1100 Block of CALIFORNIA ST,-122.413310900175,37.7915739862746
37.7878080003666,-122.404271795034,,Point,2003-11-26 18:00:00,BURGLARY,"BURGLARY, UNLAWFUL ENTRY",Wednesday,CENTRAL,NONE,0 Block of GEARY ST,-122.404271795034,37.7878080003666
37.7824948907735,-122.410689907787,,Point,2004-07-22 22:30:00,WARRANTS,WARRANT ARREST,Thursday,TENDERLOIN,"ARREST, BOOKED",0 Block of TAYLOR ST,-122.410689907787,37.7824948907735
37.7672442209616,-122.510225749052,,Point,2015-05-13 16:00:00,LARCENY/THEFT,GRAND THEFT FROM LOCKED AUTO,Wednesday,RICHMOND,NONE,1000 Block of GREAT HY,-122.510225749052,37.7672442209616
37.8082613305439,-122.414988252591,,Point,2014-10-19 16:00:00,ASSAULT,BATTERY,Sunday,CENTRAL,NONE,100 Block of JEFFERSON ST,-122.414988252591,37.8082613305439
37.7345447826952,-122.419582721685,,Point,2005-12-02 13:35:00,OTHER OFFENSES,POISONING ANIMALS,Friday,INGLESIDE,NONE,0 Block of ARNOLD AV,-122.419582721685,37.7345447826952
37.7671092711054,-122.447199953764,,Point,2007-11-26 00:38:00,LARCENY/THEFT,GRAND THEFT AUTO STRIP,Monday,PARK,NONE,DOWNEY ST / FREDERICK ST,-122.447199953764,37.7671092711054
37.7903017795584,-122.39389926289499,,Point,2003-10-16 20:21:00,OTHER OFFENSES,VIOLATION OF MUNICIPAL CODE,Thursday,SOUTHERN,"ARREST, CITED",200 Block of HOWARD ST,-122.39389926289499,37.7903017795584
37.780764225439796,-122.41232090743601,,Point,2013-04-29 19:35:00,FRAUD,FALSE ID TO PEACE OFFICER,Monday,SOUTHERN,JUVENILE BOOKED,1100 Block of MARKET ST,-122.41232090743601,37.780764225439796
37.7690595236078,-122.420787082234,,Point,2004-01-10 13:24:00,DRUG/NARCOTIC,POSSESSION OF BASE/ROCK COCAINE FOR SALE,Saturday,MISSION,"ARREST, BOOKED",0 Block of WOODWARD ST,-122.420787082234,37.7690595236078
37.770641894603706,-122.423155228838,,Point,2005-12-26 22:00:00,VEHICLE THEFT,STOLEN TRUCK,Monday,SOUTHERN,NONE,0 Block of ELGINPARK ST,-122.423155228838,37.770641894603706
37.7650501214668,-122.419671780296,,Point,2010-03-09 16:35:00,ROBBERY,"ROBBERY ON THE STREET, STRONGARM",Tuesday,MISSION,NONE,16TH ST / MISSION ST,-122.419671780296,37.7650501214668
37.7812707434494,-122.41133956255699,,Point,2012-07-14 12:25:00,NON-CRIMINAL,CASE CLOSURE,Saturday,SOUTHERN,NONE,1000 Block of MARKET ST,-122.41133956255699,37.7812707434494
37.7830791191236,-122.393622739385,,Point,2003-05-14 17:00:00,NON-CRIMINAL,LOST PROPERTY,Wednesday,SOUTHERN,NONE,2ND ST / BRYANT ST,-122.393622739385,37.7830791191236
37.799931938621505,-122.439368478152,,Point,2003-02-20 19:49:00,ASSAULT,THREATS AGAINST LIFE,Thursday,NORTHERN,NONE,3200 Block of PIERCE ST,-122.439368478152,37.799931938621505
37.775420706711,-122.40340479147899,,Point,2010-04-22 22:00:00,LARCENY/THEFT,GRAND THEFT FROM LOCKED AUTO,Thursday,SOUTHERN,NONE,800 Block of BRYANT ST,-122.40340479147899,37.775420706711
37.781446350134004,-122.41714684383601,,Point,2006-02-09 22:28:00,OTHER OFFENSES,RESISTING ARREST,Thursday,TENDERLOIN,"ARREST, BOOKED",LARKIN ST / GOLDEN GATE AV,-122.41714684383601,37.781446350134004
37.7430505534925,-122.475644251197,,Point,2014-11-26 00:51:00,DRIVING UNDER THE INFLUENCE,DRIVING WHILE UNDER THE INFLUENCE OF ALCOHOL,Wednesday,TARAVAL,"ARREST, BOOKED",19TH AV / TARAVAL ST,-122.475644251197,37.7430505534925
37.7892830749987,-122.42709369461299,,Point,2006-07-13 08:45:00,BURGLARY,"BURGLARY OF APARTMENT HOUSE, FORCIBLE ENTRY",Thursday,NORTHERN,NONE,1800 Block of OCTAVIA ST,-122.42709369461299,37.7892830749987
37.7841907151119,-122.414406029855,,Point,2011-02-13 14:46:00,OTHER OFFENSES,PROBATION VIOLATION,Sunday,TENDERLOIN,"ARREST, BOOKED",300 Block of LEAVENWORTH ST,-122.414406029855,37.7841907151119
37.733770030402,-122.38484320705,,Point,2006-06-12 13:20:00,ASSAULT,THREATS AGAINST LIFE,Monday,BAYVIEW,NONE,0 Block of BASS CR,-122.38484320705,37.733770030402
37.711581641573204,-122.427965645504,,Point,2005-05-21 00:15:00,DRUG/NARCOTIC,POSSESSION OF NARCOTICS PARAPHERNALIA,Saturday,INGLESIDE,NONE,1700 Block of GENEVA AV,-122.427965645504,37.711581641573204
37.795096260604794,-122.401469604468,,Point,2006-11-19 23:00:00,VANDALISM,"MALICIOUS MISCHIEF, VANDALISM",Sunday,CENTRAL,NONE,500 Block of SANSOME ST,-122.401469604468,37.795096260604794
37.786944661644505,-122.45984558810801,,Point,2009-11-10 12:00:00,BAD CHECKS,"CHECKS, NON-SUFFICIENT FUNDS (FELONY)",Tuesday,RICHMOND,NONE,0 Block of LAKE ST,-122.45984558810801,37.786944661644505
37.7800398896755,-122.483128879895,,Point,2003-12-22 19:10:00,LARCENY/THEFT,PETTY THEFT FROM A BUILDING,Monday,RICHMOND,NONE,5900 Block of GEARY BL,-122.483128879895,37.7800398896755
37.7655925586661,-122.389099860747,,Point,2005-03-10 01:06:00,OTHER OFFENSES,VIOLATION OF MUNICIPAL CODE,Thursday,BAYVIEW,"ARREST, BOOKED",1900 Block of 3RD ST,-122.389099860747,37.7655925586661
37.7738617771611,-122.413045971966,,Point,2015-01-09 00:01:00,MISSING PERSON,MISSING ADULT,Friday,SOUTHERN,NONE,0 Block of DORE ST,-122.413045971966,37.7738617771611
37.7520351527768,-122.40818042923,,Point,2013-01-24 20:54:00,OTHER OFFENSES,PROBATION VIOLATION,Thursday,MISSION,NONE,1200 Block of YORK ST,-122.40818042923,37.7520351527768
37.7814292195409,-122.432329732386,,Point,2009-04-01 14:43:00,OTHER OFFENSES,TRAFFIC VIOLATION ARREST,Wednesday,NORTHERN,"ARREST, BOOKED",EDDY ST / FILLMORE ST,-122.432329732386,37.7814292195409
37.7183493116851,-122.400931162178,,Point,2004-06-08 14:30:00,ASSAULT,THREATS AGAINST LIFE,Tuesday,INGLESIDE,NONE,1100 Block of GIRARD ST,-122.400931162178,37.7183493116851
37.7657184395282,-122.409529913278,,Point,2011-08-12 16:40:00,LARCENY/THEFT,GRAND THEFT FROM PERSON,Friday,MISSION,"ARREST, BOOKED",2300 Block of 16TH ST,-122.409529913278,37.7657184395282
37.7332256396347,-122.380898507162,,Point,2009-05-17 12:48:00,MISSING PERSON,FOUND PERSON,Sunday,BAYVIEW,NONE,0 Block of BERTHA LN,-122.380898507162,37.7332256396347
37.72569335757029,-122.452289660492,,Point,2015-04-27 11:35:00,OTHER OFFENSES,RESISTING ARREST,Monday,INGLESIDE,"ARREST, BOOKED",0 Block of PHELAN AV,-122.452289660492,37.72569335757029
37.7657184395282,-122.409529913278,,Point,2008-09-06 11:15:00,MISSING PERSON,FOUND PERSON,Saturday,MISSION,JUVENILE BOOKED,2300 Block of 16TH ST,-122.409529913278,37.7657184395282
37.8028606880546,-122.408033977528,,Point,2007-05-29 02:30:00,WEAPON LAWS,POSS OF PROHIBITED WEAPON,Tuesday,CENTRAL,"ARREST, BOOKED",GRANT AV / EDITH ST,-122.408033977528,37.8028606880546
37.7598279172274,-122.425920487444,,Point,2003-06-28 19:26:00,ASSAULT,AGGRAVATED ASSAULT WITH A DEADLY WEAPON,Saturday,MISSION,"ARREST, BOOKED",19TH ST / DOLORES ST,-122.425920487444,37.7598279172274
37.774182253014295,-122.42917887616801,,Point,2013-02-19 13:28:00,ASSAULT,ASSAULT WITH CAUSTIC CHEMICALS,Tuesday,NORTHERN,NONE,WEBSTER ST / OAK ST,-122.42917887616801,37.774182253014295
37.786846897298105,-122.462012581774,,Point,2003-03-22 03:00:00,OTHER OFFENSES,OBSCENE PHONE CALLS(S),Saturday,RICHMOND,NONE,300 Block of LAKE ST,-122.462012581774,37.786846897298105
37.7825543452426,-122.39738878482599,,Point,2007-03-10 00:30:00,OTHER OFFENSES,TRAFFIC VIOLATION,Saturday,SOUTHERN,"ARREST, BOOKED",3RD ST / HARRISON ST,-122.39738878482599,37.7825543452426
37.7938844190655,-122.40256930391199,,Point,2007-12-24 20:28:00,ASSAULT,AGGRAVATED ASSAULT WITH A DEADLY WEAPON,Monday,CENTRAL,NONE,500 Block of SACRAMENTO ST,-122.40256930391199,37.7938844190655
37.7767406997372,-122.446659947567,,Point,2005-08-12 16:00:00,VANDALISM,"MALICIOUS MISCHIEF, VANDALISM OF VEHICLES",Friday,PARK,NONE,MCALLISTER ST / MASONIC AV,-122.446659947567,37.7767406997372
37.7894765068014,-122.40618184105,,Point,2006-12-28 06:40:00,WARRANTS,WARRANT ARREST,Thursday,CENTRAL,"ARREST, BOOKED",300 Block of SUTTER ST,-122.40618184105,37.7894765068014
37.7831234195168,-122.48072545461001,,Point,2010-01-26 08:30:00,SUSPICIOUS OCC,SUSPICIOUS OCCURRENCE,Tuesday,RICHMOND,NONE,200 Block of 21ST AV,-122.48072545461001,37.7831234195168
37.7536993991038,-122.44082198549201,,Point,2009-05-01 02:30:00,OTHER OFFENSES,OBSCENE PHONE CALLS(S),Friday,MISSION,DISTRICT ATTORNEY REFUSES TO PROSECUTE,0 Block of HOFFMAN AV,-122.44082198549201,37.7536993991038
37.7660406107786,-122.41653546307501,,Point,2003-08-10 16:00:00,ASSAULT,THREATS AGAINST LIFE,Sunday,MISSION,NONE,100 Block of SHOTWELL ST,-122.41653546307501,37.7660406107786
37.775555848279,-122.412349694893,,Point,2008-05-28 16:45:00,LARCENY/THEFT,PETTY THEFT FROM LOCKED AUTO,Wednesday,SOUTHERN,NONE,1200 Block of HOWARD ST,-122.412349694893,37.775555848279
37.7243766140428,-122.43622001281,,Point,2007-02-11 03:00:00,VEHICLE THEFT,ATTEMPTED STOLEN VEHICLE,Sunday,INGLESIDE,NONE,0 Block of SANJUAN AV,-122.43622001281,37.7243766140428
37.760101797057,-122.421426143003,,Point,2005-11-28 16:00:00,VEHICLE THEFT,STOLEN AUTOMOBILE,Monday,MISSION,NONE,19TH ST / VALENCIA ST,-122.421426143003,37.760101797057
37.792298314343796,-122.410982275236,,Point,2011-03-09 14:42:00,NON-CRIMINAL,"AIDED CASE, MENTAL DISTURBED",Wednesday,CENTRAL,PSYCHOPATHIC CASE,900 Block of MASON ST,-122.410982275236,37.792298314343796
37.7437268170337,-122.48118317163001,,Point,2012-07-27 13:50:00,NON-CRIMINAL,AIDED CASE,Friday,TARAVAL,NONE,2300 Block of 24TH AV,-122.48118317163001,37.7437268170337
37.73066480545821,-122.386849266637,,Point,2010-02-24 16:35:00,VEHICLE THEFT,STOLEN AUTOMOBILE,Wednesday,BAYVIEW,NONE,1400 Block of QUESADA AV,-122.386849266637,37.73066480545821
37.7870647860468,-122.39157587009899,,Point,2013-05-18 18:00:00,LARCENY/THEFT,PETTY THEFT FROM LOCKED AUTO,Saturday,SOUTHERN,NONE,300 Block of HARRISON ST,-122.39157587009899,37.7870647860468
37.777647369969,-122.432423434485,,Point,2010-03-26 19:18:00,WARRANTS,ENROUTE TO PAROLE OFFICER,Friday,NORTHERN,"ARREST, BOOKED",900 Block of FULTON ST,-122.432423434485,37.777647369969
37.7375042189557,-122.39557239993799,,Point,2003-08-09 21:15:00,OTHER OFFENSES,"DRIVERS LICENSE, SUSPENDED OR REVOKED",Saturday,BAYVIEW,"ARREST, CITED",1800 Block of OAKDALE AV,-122.39557239993799,37.7375042189557
37.7810067957738,-122.41260623089799,,Point,2006-09-06 06:45:00,VANDALISM,"MALICIOUS MISCHIEF, VANDALISM",Wednesday,TENDERLOIN,NONE,0 Block of MCALLISTER ST,-122.41260623089799,37.7810067957738
37.745688666820605,-122.412368205924,,Point,2003-12-22 01:00:00,VEHICLE THEFT,STOLEN AUTOMOBILE,Monday,INGLESIDE,NONE,1500 Block of TREAT AV,-122.412368205924,37.745688666820605
37.78491418595621,-122.411965795229,,Point,2009-04-01 07:38:00,DRUG/NARCOTIC,POSSESSION OF NARCOTICS PARAPHERNALIA,Wednesday,TENDERLOIN,"ARREST, CITED",300 Block of ELLIS ST,-122.411965795229,37.78491418595621
37.7428597087378,-122.479977047843,,Point,2006-04-20 17:00:00,ROBBERY,"ROBBERY ON THE STREET, STRONGARM",Thursday,TARAVAL,NONE,23RD AV / TARAVAL ST,-122.479977047843,37.7428597087378
37.7782961921952,-122.42501937228998,,Point,2013-01-08 14:00:00,ROBBERY,"ROBBERY, BODILY FORCE",Tuesday,NORTHERN,NONE,600 Block of OCTAVIA ST,-122.42501937228998,37.7782961921952
37.742681719006,-122.439856212838,,Point,2013-12-28 21:30:00,VEHICLE THEFT,STOLEN AUTOMOBILE,Saturday,INGLESIDE,NONE,100 Block of GOLDMINE DR,-122.439856212838,37.742681719006
37.7552939346637,-122.42096620065901,,Point,2011-01-10 14:53:00,OTHER OFFENSES,"DRIVERS LICENSE, SUSPENDED OR REVOKED",Monday,MISSION,"ARREST, CITED",VALENCIA ST / 22ND ST,-122.42096620065901,37.7552939346637
37.773091216169,-122.47400413417401,,Point,2009-05-02 19:50:00,LARCENY/THEFT,GRAND THEFT FROM LOCKED AUTO,Saturday,RICHMOND,"ARREST, BOOKED",3900 Block of FULTON ST,-122.47400413417401,37.773091216169
37.750572739313895,-122.41940150486,,Point,2009-09-19 14:30:00,NON-CRIMINAL,LOST PROPERTY,Saturday,MISSION,NONE,BARTLETT ST / 25TH ST,-122.41940150486,37.750572739313895
37.761164857916704,-122.490402204161,,Point,2012-07-28 16:11:00,ASSAULT,THREATENING PHONE CALL(S),Saturday,TARAVAL,NONE,2600 Block of JUDAH ST,-122.490402204161,37.761164857916704
37.7626702770923,-122.435187699322,,Point,2003-12-25 19:40:00,OTHER OFFENSES,MISCELLANEOUS INVESTIGATION,Thursday,PARK,NONE,CASTRO ST / MARKET ST,-122.435187699322,37.7626702770923
37.7997351778406,-122.407578328153,,Point,2006-06-18 20:00:00,OTHER OFFENSES,"DRIVERS LICENSE, SUSPENDED OR REVOKED",Sunday,CENTRAL,"ARREST, CITED",500 Block of GREEN ST,-122.407578328153,37.7997351778406
37.7965641992536,-122.404895799327,,Point,2007-08-26 03:50:00,DRUNKENNESS,UNDER INFLUENCE OF ALCOHOL IN A PUBLIC PLACE,Sunday,CENTRAL,"ARREST, BOOKED",100 Block of COLUMBUS AV,-122.404895799327,37.7965641992536
37.781498721321796,-122.404934413339,,Point,2010-05-20 10:00:00,LARCENY/THEFT,GRAND THEFT OF PROPERTY,Thursday,SOUTHERN,NONE,HOWARD ST / 5TH ST,-122.404934413339,37.781498721321796
37.805668427808,-122.409463448599,,Point,2011-08-14 16:57:00,NON-CRIMINAL,FOUND PROPERTY,Sunday,CENTRAL,NONE,0 Block of MIDWAY ST,-122.409463448599,37.805668427808
37.775420706711,-122.40340479147899,,Point,2011-08-24 08:15:00,LARCENY/THEFT,GRAND THEFT FROM A BUILDING,Wednesday,SOUTHERN,NONE,800 Block of BRYANT ST,-122.40340479147899,37.775420706711
37.7408360860857,-122.48468258573799,,Point,2005-06-05 00:01:00,VANDALISM,"MALICIOUS MISCHIEF, VANDALISM OF VEHICLES",Sunday,TARAVAL,NONE,2600 Block of ULLOA ST,-122.48468258573799,37.7408360860857
37.7725405391593,-122.46620466789301,,Point,2004-01-20 16:50:00,LARCENY/THEFT,"LOST PROPERTY, PETTY THEFT",Tuesday,RICHMOND,NONE,500 Block of JOHN F KENNEDY DR,-122.46620466789301,37.7725405391593
37.7469411468917,-122.41062121551599,,Point,2012-11-04 02:00:00,LARCENY/THEFT,GRAND THEFT FROM LOCKED AUTO,Sunday,INGLESIDE,NONE,ALABAMA ST / PRECITA AV,-122.41062121551599,37.7469411468917
37.7717810622866,-122.423715048532,,Point,2012-06-29 14:55:00,NON-CRIMINAL,"AIDED CASE, MENTAL DISTURBED",Friday,SOUTHERN,PSYCHOPATHIC CASE,1800 Block of MARKET ST,-122.423715048532,37.7717810622866
37.7291138540107,-122.38399569989402,,Point,2009-06-13 18:10:00,OTHER OFFENSES,RECKLESS DRIVING,Saturday,BAYVIEW,PSYCHOPATHIC CASE,INGALLS ST / QUESADA AV,-122.38399569989402,37.7291138540107
37.7675027326801,-122.42895003272699,,Point,2014-09-06 02:00:00,OTHER OFFENSES,"TRAFFIC COLLISION, HIT & RUN, PROPERTY DAMAGE",Saturday,NORTHERN,"ARREST, CITED",14TH ST / CHURCH ST,-122.42895003272699,37.7675027326801
37.758420303653104,-122.418963082325,,Point,2010-11-02 03:00:00,SECONDARY CODES,DOMESTIC VIOLENCE,Tuesday,MISSION,NONE,2400 Block of MISSION ST,-122.418963082325,37.758420303653104
37.7820729312029,-122.412224164736,,Point,2013-06-13 16:33:00,DRUG/NARCOTIC,SALE OF CONTROLLED SUBSTANCE,Thursday,TENDERLOIN,NONE,GOLDEN GATE AV / JONES ST,-122.412224164736,37.7820729312029
37.772313893437705,-122.45163785228901,,Point,2012-06-01 16:30:00,NON-CRIMINAL,LOST PROPERTY,Friday,PARK,NONE,2000 Block of FELL ST,-122.45163785228901,37.772313893437705
37.7841893501425,-122.407633520742,,Point,2012-03-19 19:30:00,LARCENY/THEFT,GRAND THEFT PICKPOCKET,Monday,SOUTHERN,NONE,800 Block of MARKET ST,-122.407633520742,37.7841893501425
37.7520659016205,-122.427400014896,,Point,2003-06-29 15:00:00,VEHICLE THEFT,STOLEN AUTOMOBILE,Sunday,MISSION,NONE,1100 Block of CHURCH ST,-122.427400014896,37.7520659016205
37.78247564227721,-122.424109315499,,Point,2010-10-23 19:30:00,LARCENY/THEFT,PETTY THEFT FROM LOCKED AUTO,Saturday,NORTHERN,NONE,EDDY ST / GOUGH ST,-122.424109315499,37.78247564227721
37.7558420273654,-122.503387426252,,Point,2014-06-27 13:40:00,ROBBERY,ATTEMPTED ROBBERY WITH BODILY FORCE,Friday,TARAVAL,NONE,1600 Block of 44TH AV,-122.503387426252,37.7558420273654
37.735612324626395,-122.495663327199,,Point,2006-01-29 00:01:00,FORGERY/COUNTERFEITING,"CHECKS, MAKE OR PASS FICTITIOUS",Sunday,TARAVAL,NOT PROSECUTED,2700 Block of 38TH AV,-122.495663327199,37.735612324626395
37.7285280627465,-122.47564746078599,,Point,2011-08-25 14:45:00,LARCENY/THEFT,GRAND THEFT SHOPLIFTING,Thursday,TARAVAL,"ARREST, CITED",3200 Block of 20TH AV,-122.47564746078599,37.7285280627465
37.790013815601796,-122.413755582047,,Point,2003-02-08 03:46:00,ASSAULT,STALKING,Saturday,CENTRAL,NONE,900 Block of JONES ST,-122.413755582047,37.790013815601796
37.7815668300024,-122.40805253847,,Point,2013-04-02 18:11:00,DRUG/NARCOTIC,POSSESSION OF METH-AMPHETAMINE,Tuesday,SOUTHERN,"ARREST, BOOKED",900 Block of MISSION ST,-122.40805253847,37.7815668300024
37.786037162351896,-122.40621287821699,,Point,2013-09-08 10:36:00,WARRANTS,WARRANT ARREST,Sunday,TENDERLOIN,"ARREST, BOOKED",0 Block of STOCKTON ST,-122.40621287821699,37.786037162351896
37.769845442558605,-122.421291105646,,Point,2011-03-24 17:15:00,VEHICLE THEFT,STOLEN AUTOMOBILE,Thursday,MISSION,NONE,0 Block of DUBOCE AV,-122.421291105646,37.769845442558605
37.7880255442875,-122.447820608146,,Point,2011-10-08 21:00:00,ASSAULT,BATTERY,Saturday,RICHMOND,NONE,3300 Block of SACRAMENTO ST,-122.447820608146,37.7880255442875
37.7418910563993,-122.388204239979,,Point,2008-07-11 22:00:00,VANDALISM,"MALICIOUS MISCHIEF, VANDALISM OF VEHICLES",Friday,BAYVIEW,NONE,FAIRFAX AV / 3RD ST,-122.388204239979,37.7418910563993
37.75250507857579,-122.414089000708,,Point,2007-07-01 17:48:00,OTHER OFFENSES,VIOLATION OF MUNICIPAL POLICE CODE,Sunday,MISSION,"ARREST, CITED",24TH ST / FOLSOM ST,-122.414089000708,37.75250507857579
37.789920001484106,-122.422062730264,,Point,2006-08-26 06:00:00,VEHICLE THEFT,STOLEN AUTOMOBILE,Saturday,NORTHERN,DISTRICT ATTORNEY REFUSES TO PROSECUTE,1500 Block of VANNESS AV,-122.422062730264,37.789920001484106
37.779202123681,-122.501331891706,,Point,2014-05-18 09:00:00,NON-CRIMINAL,"DEATH REPORT, NATURAL CAUSES",Sunday,RICHMOND,NONE,7500 Block of GEARY BL,-122.501331891706,37.779202123681
37.7675941669426,-122.417653316856,,Point,2006-07-12 22:00:00,KIDNAPPING,FALSE IMPRISONMENT,Wednesday,MISSION,"ARREST, BOOKED",300 Block of SOUTH VAN NESS AV,-122.417653316856,37.7675941669426
37.7788518670227,-122.39275357357401,,Point,2014-12-09 17:59:00,NON-CRIMINAL,"AIDED CASE, MENTAL DISTURBED",Tuesday,SOUTHERN,NONE,TOWNSEND ST / 3RD ST,-122.39275357357401,37.7788518670227
37.729769211767795,-122.37337604924,,Point,2015-02-22 14:19:00,SUSPICIOUS OCC,INVESTIGATIVE DETENTION,Sunday,BAYVIEW,UNFOUNDED,700 Block of JERROLD AV,-122.37337604924,37.729769211767795
37.8039377199703,-122.412241726582,,Point,2008-02-21 00:18:00,ASSAULT,ASSAULT ON A POLICE OFFICER WITH A DEADLY WEAPON,Thursday,CENTRAL,"ARREST, BOOKED",500 Block of CHESTNUT ST,-122.412241726582,37.8039377199703
37.7827239702919,-122.396167865037,,Point,2003-10-31 21:40:00,VANDALISM,"MALICIOUS MISCHIEF, VANDALISM",Friday,SOUTHERN,NONE,0 Block of PERRY ST,-122.396167865037,37.7827239702919
37.7847098968616,-122.4178091031,,Point,2008-05-02 18:40:00,DRUG/NARCOTIC,POSSESSION OF BASE/ROCK COCAINE,Friday,NORTHERN,"ARREST, BOOKED",OLIVE ST / LARKIN ST,-122.4178091031,37.7847098968616
37.799049760721296,-122.42390741064699,,Point,2013-11-27 15:00:00,LARCENY/THEFT,GRAND THEFT FROM LOCKED AUTO,Wednesday,NORTHERN,NONE,2500 Block of VANNESS AV,-122.42390741064699,37.799049760721296
37.7621307247611,-122.421550176461,,Point,2009-12-11 00:18:00,ASSAULT,THREATS AGAINST LIFE,Friday,MISSION,"ARREST, BOOKED",600 Block of VALENCIA ST,-122.421550176461,37.7621307247611
37.7762012011279,-122.42876060987899,,Point,2004-12-26 14:00:00,FRAUD,FRAUDULENT CREDIT APPLICATION,Sunday,NORTHERN,NONE,700 Block of HAYES ST,-122.42876060987899,37.7762012011279
37.7642205603745,-122.41965834371,,Point,2007-10-21 06:01:00,OTHER OFFENSES,INTERFERRING WITH A POLICE OFFICER,Sunday,MISSION,"ARREST, BOOKED",2000 Block of MISSION ST,-122.41965834371,37.7642205603745
37.718732479957,-122.38913638360701,,Point,2012-05-30 08:00:00,FRAUD,FRAUDULENT CREDIT APPLICATION,Wednesday,BAYVIEW,NONE,1000 Block of GILMAN AV,-122.38913638360701,37.718732479957
37.7194674627736,-122.428426839039,,Point,2015-04-04 13:55:00,NON-CRIMINAL,FOUND PROPERTY,Saturday,INGLESIDE,NONE,900 Block of PERSIA AV,-122.428426839039,37.7194674627736
37.799822857929,-122.414121429085,,Point,2005-05-05 22:15:00,LARCENY/THEFT,GRAND THEFT FROM LOCKED AUTO,Thursday,CENTRAL,NONE,UNION ST / TAYLOR ST,-122.414121429085,37.799822857929
37.7780245674641,-122.415444159886,,Point,2013-10-01 09:10:00,LARCENY/THEFT,PETTY THEFT FROM LOCKED AUTO,Tuesday,SOUTHERN,NONE,1200 Block of MARKET ST,-122.415444159886,37.7780245674641
37.7830505366842,-122.415858343095,,Point,2010-09-11 19:46:00,DRUG/NARCOTIC,SALE OF BASE/ROCK COCAINE,Saturday,TENDERLOIN,"ARREST, BOOKED",200 Block of HYDE ST,-122.415858343095,37.7830505366842
37.79646313649229,-122.406810062197,,Point,2015-01-24 18:00:00,OTHER OFFENSES,FALSE PERSONATION TO RECEIVE MONEY OR PROPERTY,Saturday,CENTRAL,NONE,1000 Block of GRANT AV,-122.406810062197,37.79646313649229
37.711863773594295,-122.43473279229799,,Point,2013-03-22 16:00:00,LARCENY/THEFT,PETTY THEFT OF PROPERTY,Friday,INGLESIDE,NONE,0 Block of SEVILLE ST,-122.43473279229799,37.711863773594295
37.7985083480435,-122.40979166229299,,Point,2015-03-06 22:15:00,OTHER OFFENSES,FALSE PERSONATION TO RECEIVE MONEY OR PROPERTY,Friday,CENTRAL,NONE,700 Block of VALLEJO ST,-122.40979166229299,37.7985083480435
37.7363908050669,-122.39014671643999,,Point,2006-08-23 11:19:00,OTHER OFFENSES,PAROLE VIOLATION,Wednesday,BAYVIEW,"ARREST, BOOKED",3RD ST / MCKINNON AV,-122.39014671643999,37.7363908050669
37.793658838097,-122.40347587314501,,Point,2014-01-26 07:40:00,NON-CRIMINAL,"CIVIL SIDEWALKS, WARNING",Sunday,CENTRAL,NONE,600 Block of SACRAMENTO ST,-122.40347587314501,37.793658838097
37.7642891955749,-122.43228179167801,,Point,2015-01-20 16:37:00,NON-CRIMINAL,"CIVIL SIDEWALKS, CITATION",Tuesday,MISSION,"ARREST, BOOKED",16TH ST / POND ST,-122.43228179167801,37.7642891955749
37.7181339755846,-122.39831531485599,,Point,2008-09-02 23:40:00,OTHER OFFENSES,MISCELLANEOUS INVESTIGATION,Tuesday,BAYVIEW,UNFOUNDED,6600 Block of 3RD ST,-122.39831531485599,37.7181339755846
37.775420706711,-122.40340479147899,,Point,2010-12-29 22:05:00,FRAUD,DEFRAUDING AN INNKEEPER,Wednesday,SOUTHERN,"ARREST, BOOKED",800 Block of BRYANT ST,-122.40340479147899,37.775420706711
37.7857446545609,-122.405832474482,,Point,2007-07-25 10:30:00,LARCENY/THEFT,GRAND THEFT FROM PERSON,Wednesday,SOUTHERN,NONE,MARKET ST / ELLIS ST,-122.405832474482,37.7857446545609
37.7292626391341,-122.382475491131,,Point,2007-02-21 19:45:00,NON-CRIMINAL,LOST PROPERTY,Wednesday,BAYVIEW,NONE,1100 Block of PALOU AV,-122.382475491131,37.7292626391341
37.794344689779294,-122.427363308517,,Point,2014-07-22 12:46:00,LARCENY/THEFT,GRAND THEFT OF PROPERTY,Tuesday,NORTHERN,NONE,1900 Block of PACIFIC AV,-122.427363308517,37.794344689779294
37.7421985363468,-122.473417894034,,Point,2010-08-26 12:00:00,NON-CRIMINAL,COURTESY REPORT,Thursday,TARAVAL,NONE,2400 Block of 17TH AV,-122.473417894034,37.7421985363468
37.7767052770071,-122.45847211449,,Point,2008-10-30 19:23:00,BURGLARY,"BURGLARY,STORE UNDER CONSTRUCTION, UNLAWFUL ENTRY",Thursday,RICHMOND,NONE,700 Block of ARGUELLO BL,-122.45847211449,37.7767052770071
37.78589260994861,-122.419739837813,,Point,2004-08-07 22:00:00,FRAUD,"CREDIT CARD, THEFT BY USE OF",Saturday,NORTHERN,NONE,POLK ST / GEARY ST,-122.419739837813,37.78589260994861
37.783287873572,-122.408953598279,,Point,2010-06-02 16:43:00,OTHER OFFENSES,PROBATION VIOLATION,Wednesday,SOUTHERN,NONE,TURK ST / MASON ST,-122.408953598279,37.783287873572
37.7802655777189,-122.40339036479601,,Point,2006-02-26 00:30:00,LARCENY/THEFT,GRAND THEFT FROM LOCKED AUTO,Sunday,SOUTHERN,NONE,FOLSOM ST / 5TH ST,-122.40339036479601,37.7802655777189
37.7550759585846,-122.411125926112,,Point,2007-06-29 08:45:00,ASSAULT,INFLICT INJURY ON COHABITEE,Friday,MISSION,NONE,1000 Block of ALABAMA ST,-122.411125926112,37.7550759585846
37.7859407304209,-122.418918390218,,Point,2010-08-14 00:15:00,LARCENY/THEFT,PETTY THEFT OF PROPERTY,Saturday,NORTHERN,NONE,900 Block of GEARY ST,-122.418918390218,37.7859407304209
37.785999562965706,-122.401806211212,,Point,2006-08-27 02:30:00,ROBBERY,"ROBBERY ON THE STREET, STRONGARM",Sunday,SOUTHERN,NONE,100 Block of 3RD ST,-122.401806211212,37.785999562965706
37.7316450604526,-122.391800296943,,Point,2014-06-29 18:35:00,OTHER OFFENSES,"DRIVERS LICENSE, SUSPENDED OR REVOKED",Sunday,BAYVIEW,"ARREST, CITED",SHAFTER AV / 3RD ST,-122.391800296943,37.7316450604526
37.79156871030021,-122.43107316900699,,Point,2014-09-01 06:00:00,NON-CRIMINAL,TARASOFF REPORT,Monday,NORTHERN,NONE,2300 Block of BUCHANAN ST,-122.43107316900699,37.79156871030021
37.7410287442117,-122.42284237605101,,Point,2011-06-17 14:30:00,OTHER OFFENSES,"DRIVERS LICENSE, SUSPENDED OR REVOKED",Friday,INGLESIDE,"ARREST, CITED",MISSION ST / CORTLAND AV,-122.42284237605101,37.7410287442117
37.7415392647992,-122.38555870686399,,Point,2011-12-17 11:00:00,LARCENY/THEFT,PETTY THEFT FROM A BUILDING,Saturday,BAYVIEW,"ARREST, BOOKED",1400 Block of EVANS AV,-122.38555870686399,37.7415392647992
37.7853730435472,-122.431369772433,,Point,2014-09-02 14:15:00,OTHER OFFENSES,"TRAFFIC COLLISION, HIT & RUN, INJURY",Tuesday,NORTHERN,"ARREST, BOOKED",WEBSTER ST / POST ST,-122.431369772433,37.7853730435472
37.770109929822,-122.42001017561701,,Point,2003-05-27 14:55:00,ASSAULT,BATTERY,Tuesday,SOUTHERN,"ARREST, CITED",MISSION ST / 13TH ST,-122.42001017561701,37.770109929822
37.787965256956795,-122.41846774793801,,Point,2003-03-17 02:50:00,WEAPON LAWS,EXHIBITING DEADLY WEAPON IN A THREATING MANNER,Monday,NORTHERN,"ARREST, BOOKED",SUTTER ST / LARKIN ST,-122.41846774793801,37.787965256956795
37.775420706711,-122.40340479147899,,Point,2009-01-21 21:00:00,LARCENY/THEFT,GRAND THEFT FROM LOCKED AUTO,Wednesday,SOUTHERN,NONE,800 Block of BRYANT ST,-122.40340479147899,37.775420706711
37.756479138014704,-122.43451344058799,,Point,2004-06-07 19:30:00,VANDALISM,"MALICIOUS MISCHIEF, VANDALISM OF VEHICLES",Monday,MISSION,NONE,700 Block of CASTRO ST,-122.43451344058799,37.756479138014704
37.806151593561104,-122.418537074676,,Point,2012-08-07 21:00:00,NON-CRIMINAL,LOST PROPERTY,Tuesday,CENTRAL,NONE,1300 Block of COLUMBUS AV,-122.418537074676,37.806151593561104
37.7832519831714,-122.393933410185,,Point,2012-04-20 18:00:00,BURGLARY,"BURGLARY,STORE UNDER CONSTRUCTION, FORCIBLE ENTRY",Friday,SOUTHERN,NONE,400 Block of 2ND ST,-122.393933410185,37.7832519831714
37.7317036852921,-122.399424643338,,Point,2011-03-27 18:46:00,OTHER OFFENSES,"DRIVERS LICENSE, SUSPENDED OR REVOKED",Sunday,BAYVIEW,"ARREST, CITED",THORNTON AV / SCOTIA AV,-122.399424643338,37.7317036852921
37.7941536532737,-122.399559848139,,Point,2014-04-29 18:00:00,LARCENY/THEFT,GRAND THEFT OF PROPERTY,Tuesday,CENTRAL,NONE,300 Block of SACRAMENTO ST,-122.399559848139,37.7941536532737
37.7801630691196,-122.40769310852899,,Point,2006-07-30 17:18:00,DRUG/NARCOTIC,POSSESSION OF BASE/ROCK COCAINE FOR SALE,Sunday,SOUTHERN,"ARREST, BOOKED",6TH ST / NATOMA ST,-122.40769310852899,37.7801630691196
37.7681979747465,-122.429080297019,,Point,2003-07-09 11:35:00,LARCENY/THEFT,PETTY THEFT SHOPLIFTING,Wednesday,NORTHERN,NONE,100 Block of CHURCH ST,-122.429080297019,37.7681979747465
37.730806609582,-122.37551296863501,,Point,2012-08-12 19:51:00,ASSAULT,THREATS AGAINST LIFE,Sunday,BAYVIEW,"ARREST, BOOKED",0 Block of NORTHRIDGE RD,-122.37551296863501,37.730806609582
37.7481246616016,-122.42027922768,,Point,2012-03-19 03:00:00,LARCENY/THEFT,GRAND THEFT FROM LOCKED AUTO,Monday,MISSION,NONE,CESAR CHAVEZ ST / VALENCIA ST,-122.42027922768,37.7481246616016
37.76851476479521,-122.43009382302799,,Point,2009-10-17 16:53:00,WARRANTS,WARRANT ARREST,Saturday,NORTHERN,"ARREST, BOOKED",0 Block of BELCHER ST,-122.43009382302799,37.76851476479521
37.770892534208,-122.44381274387,,Point,2014-12-24 10:45:00,NON-CRIMINAL,"CIVIL SIDEWALKS, CITATION",Wednesday,PARK,"ARREST, CITED",100 Block of CENTRAL AV,-122.44381274387,37.770892534208
37.723007833642896,-122.397988272381,,Point,2007-03-19 10:30:00,LARCENY/THEFT,GRAND THEFT FROM LOCKED AUTO,Monday,BAYVIEW,NONE,200 Block of PAUL AV,-122.397988272381,37.723007833642896
37.7922963629344,-122.443007407705,,Point,2004-05-02 22:00:00,LARCENY/THEFT,GRAND THEFT FROM UNLOCKED AUTO,Sunday,RICHMOND,NONE,BRODERICK ST / PACIFIC AV,-122.443007407705,37.7922963629344
37.79022395394,-122.393801567015,,Point,2005-06-04 21:00:00,NON-CRIMINAL,LOST PROPERTY,Saturday,SOUTHERN,NONE,200 Block of HOWARD ST,-122.393801567015,37.79022395394
37.770700025011394,-122.40627707398701,,Point,2014-09-17 08:25:00,TRESPASS,LODGING WITHOUT PERMISSION,Wednesday,SOUTHERN,"ARREST, CITED",900 Block of BRANNAN ST,-122.40627707398701,37.770700025011394
37.7833862379382,-122.409853729941,,Point,2006-03-23 09:10:00,OTHER OFFENSES,TRAFFIC VIOLATION,Thursday,TENDERLOIN,"ARREST, CITED",0 Block of TURK ST,-122.409853729941,37.7833862379382
37.7865647607685,-122.407244087032,,Point,2013-12-23 06:20:00,LARCENY/THEFT,PETTY THEFT SHOPLIFTING,Monday,TENDERLOIN,"ARREST, BOOKED",100 Block of OFARRELL ST,-122.407244087032,37.7865647607685
37.7853099928246,-122.39852676091499,,Point,2005-10-06 17:05:00,STOLEN PROPERTY,RECEIVING STOLEN PROPERTY,Thursday,SOUTHERN,"ARREST, BOOKED",0 Block of HAWTHORNE ST,-122.39852676091499,37.7853099928246
37.7653228296334,-122.435502831181,,Point,2011-09-09 19:30:00,LARCENY/THEFT,GRAND THEFT FROM LOCKED AUTO,Friday,PARK,NONE,200 Block of CASTRO ST,-122.435502831181,37.7653228296334
37.7139872622666,-122.460845506311,,Point,2011-04-21 22:30:00,LARCENY/THEFT,GRAND THEFT FROM LOCKED AUTO,Thursday,TARAVAL,NONE,200 Block of FARALLONES ST,-122.460845506311,37.7139872622666
37.7998083212728,-122.414688088841,,Point,2005-07-12 21:35:00,ASSAULT,BATTERY,Tuesday,CENTRAL,NONE,900 Block of UNION ST,-122.414688088841,37.7998083212728
37.7529064152272,-122.407294221812,,Point,2005-04-10 20:34:00,ASSAULT,BATTERY,Sunday,MISSION,NONE,24TH ST / HAMPSHIRE ST,-122.407294221812,37.7529064152272
37.775420706711,-122.40340479147899,,Point,2006-02-26 12:02:00,FRAUD,"CREDIT CARD, THEFT BY USE OF",Sunday,SOUTHERN,NOT PROSECUTED,800 Block of BRYANT ST,-122.40340479147899,37.775420706711
37.7219675742406,-122.431371314076,,Point,2012-03-20 11:00:00,ASSAULT,BATTERY,Tuesday,INGLESIDE,"ARREST, CITED",400 Block of EDINBURGH ST,-122.431371314076,37.7219675742406
37.7890813338947,-122.413568359612,,Point,2005-01-11 04:06:00,WARRANTS,ENROUTE TO PROBATION OFFICER,Tuesday,CENTRAL,"ARREST, BOOKED",800 Block of JONES ST,-122.413568359612,37.7890813338947
37.7830295716044,-122.431046366089,,Point,2003-12-08 11:00:00,FRAUD,"CREDIT CARD, THEFT BY USE OF",Monday,NORTHERN,NONE,1300 Block of WEBSTER ST,-122.431046366089,37.7830295716044
37.7999766237345,-122.442848362096,,Point,2010-07-01 12:43:00,OTHER OFFENSES,"DRIVERS LICENSE, SUSPENDED OR REVOKED",Thursday,NORTHERN,"ARREST, CITED",CHESTNUT ST / DIVISADERO ST,-122.442848362096,37.7999766237345
37.783581016616296,-122.42109350507799,,Point,2004-11-25 12:00:00,FORGERY/COUNTERFEITING,"FORGERY, NOTES",Thursday,NORTHERN,NONE,800 Block of VANNESS AV,-122.42109350507799,37.783581016616296
37.75199756201009,-122.459031845907,,Point,2013-11-02 10:06:00,ARSON,ARSON,Saturday,PARK,NONE,700 Block of CLARENDON AV,-122.459031845907,37.75199756201009
37.7167060809755,-122.47754072034901,,Point,2012-01-11 14:30:00,BURGLARY,"BURGLARY OF APARTMENT HOUSE, UNLAWFUL ENTRY",Wednesday,TARAVAL,NONE,0 Block of JOSEPHA AV,-122.47754072034901,37.7167060809755
37.7869881885308,-122.410699657634,,Point,2010-11-01 11:39:00,LARCENY/THEFT,THEFT OF COMPUTERS OR CELL PHONES,Monday,CENTRAL,NONE,400 Block of GEARY ST,-122.410699657634,37.7869881885308
37.7822305870036,-122.41029351969,,Point,2009-10-12 11:15:00,OTHER OFFENSES,PROBATION VIOLATION,Monday,SOUTHERN,"ARREST, BOOKED",MARKET ST / TAYLOR ST,-122.41029351969,37.7822305870036
37.7800332991006,-122.464279879446,,Point,2012-01-01 00:01:00,MISSING PERSON,FOUND PERSON,Sunday,RICHMOND,LOCATED,400 Block of 6TH AV,-122.464279879446,37.7800332991006
37.7907880214222,-122.419039119337,,Point,2004-10-28 00:20:00,PROSTITUTION,SOLICITS FOR ACT OF PROSTITUTION,Thursday,CENTRAL,"ARREST, BOOKED",LARKIN ST / CALIFORNIA ST,-122.419039119337,37.7907880214222
37.7668053842905,-122.417647884705,,Point,2007-01-27 11:40:00,DRUG/NARCOTIC,POSSESSION OF NARCOTICS PARAPHERNALIA,Saturday,MISSION,"ARREST, BOOKED",15TH ST / SOUTH VAN NESS AV,-122.417647884705,37.7668053842905
37.7363908050669,-122.39014671643999,,Point,2012-07-23 21:30:00,NON-CRIMINAL,LOST PROPERTY,Monday,BAYVIEW,NONE,3RD ST / MCKINNON AV,-122.39014671643999,37.7363908050669
37.7811340568243,-122.40901120663901,,Point,2011-08-28 12:35:00,WEAPON LAWS,"WEAPON, DEADLY, CARRYING WITH INTENT TO COMMIT ASSAULT",Sunday,SOUTHERN,"ARREST, BOOKED",0 Block of 6TH ST,-122.40901120663901,37.7811340568243
37.78959527743221,-122.41704429261401,,Point,2010-08-23 11:47:00,MISSING PERSON,MISSING ADULT,Monday,CENTRAL,NONE,900 Block of HYDE ST,-122.41704429261401,37.78959527743221
37.725717254655706,-122.452428220398,,Point,2011-11-01 22:00:00,OTHER OFFENSES,MISCELLANEOUS INVESTIGATION,Tuesday,INGLESIDE,JUVENILE ADMONISHED,100 Block of PHELAN AV,-122.452428220398,37.725717254655706
37.784089036686794,-122.411800134753,,Point,2011-10-21 11:00:00,NON-CRIMINAL,"DEATH REPORT, CAUSE UNKNOWN",Friday,TENDERLOIN,NONE,200 Block of EDDY ST,-122.411800134753,37.784089036686794
37.769247063207004,-122.426955631709,,Point,2004-06-25 18:45:00,NON-CRIMINAL,LOST PROPERTY,Friday,MISSION,NONE,2000 Block of MARKET ST,-122.426955631709,37.769247063207004
37.7633958260603,-122.43295553230101,,Point,2010-06-16 15:38:00,ASSAULT,BATTERY,Wednesday,MISSION,NONE,300 Block of NOE ST,-122.43295553230101,37.7633958260603
37.7196920262929,-122.438695075365,,Point,2013-05-28 14:32:00,NON-CRIMINAL,CASE CLOSURE,Tuesday,INGLESIDE,"ARREST, BOOKED",4900 Block of MISSION ST,-122.438695075365,37.7196920262929
37.7845493478697,-122.421004638611,,Point,2012-11-02 21:30:00,VANDALISM,"MALICIOUS MISCHIEF, VANDALISM",Friday,NORTHERN,NONE,900 Block of VANNESS AV,-122.421004638611,37.7845493478697
37.7848859806637,-122.48300519773501,,Point,2003-01-21 05:00:00,MISSING PERSON,FOUND PERSON,Tuesday,RICHMOND,NONE,100 Block of 23RD AV,-122.48300519773501,37.7848859806637
37.8084350175869,-122.410774214375,,Point,2012-05-01 11:00:00,LARCENY/THEFT,PETTY THEFT OF PROPERTY,Tuesday,CENTRAL,NONE,1600 Block of THE EMBARCADERONORTH ST,-122.410774214375,37.8084350175869
37.77731032196979,-122.393110640713,,Point,2008-04-03 12:00:00,FRAUD,FRAUDULENT CREDIT APPLICATION,Thursday,SOUTHERN,NONE,200 Block of KING ST,-122.393110640713,37.77731032196979
37.78447885387449,-122.404270179486,,Point,2014-11-12 15:30:00,VANDALISM,"MALICIOUS MISCHIEF, VANDALISM",Wednesday,SOUTHERN,NONE,MISSION ST / 4TH ST,-122.404270179486,37.78447885387449
37.773248092065,-122.409065690706,,Point,2006-01-25 04:00:00,NON-CRIMINAL,PROPERTY FOR IDENTIFICATION,Wednesday,SOUTHERN,NONE,1200 Block of HARRISON ST,-122.409065690706,37.773248092065
37.7503812247625,-122.408969077976,,Point,2009-12-25 20:32:00,VANDALISM,"MALICIOUS MISCHIEF, VANDALISM",Friday,MISSION,NONE,2700 Block of BRYANT ST,-122.408969077976,37.7503812247625
37.7332785505308,-122.427723621689,,Point,2013-05-15 21:30:00,LARCENY/THEFT,PETTY THEFT FROM UNLOCKED AUTO,Wednesday,INGLESIDE,"ARREST, BOOKED",100 Block of MARSILY ST,-122.427723621689,37.7332785505308
37.77983391835871,-122.41431222924,,Point,2009-02-06 08:00:00,DRUG/NARCOTIC,POSSESSION OF OPIUM DERIVATIVE,Friday,TENDERLOIN,"ARREST, BOOKED",0 Block of UNITEDNATIONS PZ,-122.41431222924,37.77983391835871
37.7539240730786,-122.390731675467,,Point,2013-02-05 07:00:00,LARCENY/THEFT,PETTY THEFT FROM LOCKED AUTO,Tuesday,BAYVIEW,NONE,1300 Block of INDIANA ST,-122.390731675467,37.7539240730786
37.775420706711,-122.40340479147899,,Point,2005-03-24 16:15:00,NON-CRIMINAL,AIDED CASE,Thursday,SOUTHERN,NONE,800 Block of BRYANT ST,-122.40340479147899,37.775420706711
37.7455330433541,-122.451622869545,,Point,2005-11-02 17:30:00,MISSING PERSON,MISSING JUVENILE,Wednesday,INGLESIDE,LOCATED,WOODSIDE AV / PORTOLA DR,-122.451622869545,37.7455330433541
37.7889098399421,-122.418658294829,,Point,2006-12-03 02:35:00,PROSTITUTION,SOLICITS TO VISIT HOUSE OF PROSTITUTION,Sunday,CENTRAL,"ARREST, BOOKED",BUSH ST / LARKIN ST,-122.418658294829,37.7889098399421
37.7794975702131,-122.393460953167,,Point,2012-12-14 18:01:00,LARCENY/THEFT,PETTY THEFT OF PROPERTY,Friday,SOUTHERN,NONE,600 Block of 3RD ST,-122.393460953167,37.7794975702131
37.7833570390935,-122.416710733848,,Point,2008-11-14 16:30:00,DRUG/NARCOTIC,POSSESSION OF BASE/ROCK COCAINE FOR SALE,Friday,TENDERLOIN,NONE,500 Block of EDDY ST,-122.416710733848,37.7833570390935
37.72087595156521,-122.429086132374,,Point,2006-03-26 10:00:00,VEHICLE THEFT,STOLEN TRUCK,Sunday,INGLESIDE,NONE,400 Block of ATHENS ST,-122.429086132374,37.72087595156521
37.7644036412279,-122.500828300284,,Point,2015-02-04 20:50:00,LARCENY/THEFT,GRAND THEFT FROM LOCKED AUTO,Wednesday,TARAVAL,NONE,LINCOLN WY / 41ST AV,-122.500828300284,37.7644036412279
37.75538982967021,-122.388004140125,,Point,2015-03-19 21:00:00,LARCENY/THEFT,GRAND THEFT FROM LOCKED AUTO,Thursday,BAYVIEW,NONE,3RD ST / 23RD ST,-122.388004140125,37.75538982967021
37.7930471195335,-122.41942381990499,,Point,2005-04-18 02:55:00,BURGLARY,"BURGLARY, HOT PROWL, UNLAWFUL ENTRY",Monday,NORTHERN,DISTRICT ATTORNEY REFUSES TO PROSECUTE,1600 Block of LARKIN ST,-122.41942381990499,37.7930471195335
37.786734218498296,-122.405895369887,,Point,2013-07-13 18:00:00,BURGLARY,"BURGLARY OF STORE, UNLAWFUL ENTRY",Saturday,TENDERLOIN,"ARREST, BOOKED",0 Block of OFARRELL ST,-122.405895369887,37.786734218498296
37.78262184354049,-122.470314308356,,Point,2006-11-05 13:15:00,LARCENY/THEFT,PETTY THEFT SHOPLIFTING,Sunday,RICHMOND,NONE,1000 Block of CLEMENT ST,-122.470314308356,37.78262184354049
37.7564864109309,-122.406539115148,,Point,2005-12-30 07:00:00,ASSAULT,BATTERY,Friday,MISSION,"ARREST, CITED",1000 Block of POTRERO AV,-122.406539115148,37.7564864109309
37.7807179285998,-122.41531796699199,,Point,2012-07-23 20:42:00,WARRANTS,ENROUTE TO DEPARTMENT OF CORRECTIONS,Monday,TENDERLOIN,"ARREST, BOOKED",HYDE ST / MCALLISTER ST,-122.41531796699199,37.7807179285998
37.780468926847895,-122.41694856587601,,Point,2014-05-17 00:13:00,ASSAULT,AGGRAVATED ASSAULT WITH BODILY FORCE,Saturday,NORTHERN,"ARREST, BOOKED",MCALLISTER ST / LARKIN ST,-122.41694856587601,37.780468926847895
37.7806388583762,-122.438098378037,,Point,2014-05-30 06:00:00,MISSING PERSON,MISSING ADULT,Friday,PARK,LOCATED,1800 Block of EDDY ST,-122.438098378037,37.7806388583762
37.7944223207031,-122.434123452012,,Point,2014-01-09 18:30:00,LARCENY/THEFT,PETTY THEFT OF PROPERTY,Thursday,NORTHERN,NONE,2200 Block of BROADWAY ST,-122.434123452012,37.7944223207031
37.784696907904,-122.413609328985,,Point,2011-07-26 17:25:00,DRUG/NARCOTIC,SALE OF BASE/ROCK COCAINE,Tuesday,TENDERLOIN,"ARREST, BOOKED",400 Block of ELLIS ST,-122.413609328985,37.784696907904
37.783079119147104,-122.393622739343,,Point,2012-06-29 17:20:00,VEHICLE THEFT,STOLEN AUTOMOBILE,Friday,SOUTHERN,NONE,2ND ST / BRYANT ST,-122.393622739343,37.783079119147104
37.7832145189783,-122.41076876635,,Point,2004-10-25 23:51:00,DRUG/NARCOTIC,TRANSPORTATION OF COCAINE,Monday,TENDERLOIN,CLEARED-CONTACT JUVENILE FOR MORE INFO,TURK ST / TAYLOR ST,-122.41076876635,37.7832145189783
37.7655714839397,-122.42429614527,,Point,2012-11-18 00:30:00,VEHICLE THEFT,STOLEN AUTOMOBILE,Sunday,MISSION,NONE,300 Block of GUERRERO ST,-122.42429614527,37.7655714839397
37.7792799070152,-122.45986063535,,Point,2012-07-11 10:46:00,OTHER OFFENSES,TRAFFIC VIOLATION,Wednesday,RICHMOND,"ARREST, CITED",2ND AV / ANZA ST,-122.45986063535,37.7792799070152
37.7808752665663,-122.41452262258,,Point,2013-06-27 01:30:00,LARCENY/THEFT,GRAND THEFT FROM A BUILDING,Thursday,TENDERLOIN,NONE,100 Block of MCALLISTER ST,-122.41452262258,37.7808752665663
37.7830037964534,-122.41241426358101,,Point,2010-08-28 22:20:00,OTHER OFFENSES,PROBATION VIOLATION,Saturday,TENDERLOIN,"ARREST, BOOKED",JONES ST / TURK ST,-122.41241426358101,37.7830037964534
37.7857446545609,-122.405832474482,,Point,2013-11-13 16:05:00,LARCENY/THEFT,PETTY THEFT OF PROPERTY,Wednesday,SOUTHERN,NONE,STOCKTON ST / MARKET ST,-122.405832474482,37.7857446545609
37.7355926106176,-122.39041695551701,,Point,2004-02-22 15:00:00,NON-CRIMINAL,LOST PROPERTY,Sunday,BAYVIEW,UNFOUNDED,3RD ST / NEWCOMB AV,-122.39041695551701,37.7355926106176
37.7864672409674,-122.415654629547,,Point,2008-08-08 20:15:00,OTHER OFFENSES,PROBATION VIOLATION,Friday,CENTRAL,"ARREST, BOOKED",700 Block of GEARY ST,-122.415654629547,37.7864672409674
37.786719015554,-122.413174494396,,Point,2014-07-08 23:30:00,OTHER OFFENSES,LOST/STOLEN LICENSE PLATE,Tuesday,TENDERLOIN,NONE,JONES ST / GEARY ST,-122.413174494396,37.786719015554
37.80078120859361,-122.4219150033,,Point,2012-09-22 12:46:00,NON-CRIMINAL,FOUND PROPERTY,Saturday,NORTHERN,NONE,1300 Block of GREENWICH ST,-122.4219150033,37.80078120859361
37.7865647607685,-122.407244087032,,Point,2004-03-21 17:20:00,BURGLARY,"BURGLARY OF STORE, UNLAWFUL ENTRY",Sunday,TENDERLOIN,"ARREST, BOOKED",100 Block of OFARRELL ST,-122.407244087032,37.7865647607685
37.789920001484106,-122.422062730264,,Point,2012-03-10 16:15:00,FORGERY/COUNTERFEITING,"FORGERY, NOTES",Saturday,NORTHERN,"ARREST, BOOKED",1500 Block of VANNESS AV,-122.422062730264,37.789920001484106
37.760420746267705,-122.48436033465,,Point,2011-01-15 21:00:00,VEHICLE THEFT,STOLEN AUTOMOBILE,Saturday,TARAVAL,NONE,1400 Block of 26TH AV,-122.48436033465,37.760420746267705
37.7303819548591,-122.429801668764,,Point,2012-12-13 22:01:00,WEAPON LAWS,VIOLATION OF RESTRICTIONS ON A FIREARM TRANSFER,Thursday,INGLESIDE,"ARREST, BOOKED",4100 Block of MISSION ST,-122.429801668764,37.7303819548591
37.77954924917979,-122.496522518983,,Point,2012-12-01 12:00:00,VEHICLE THEFT,STOLEN TRUCK,Saturday,RICHMOND,NONE,GEARY BL / 36TH AV,-122.496522518983,37.77954924917979
37.780006442029794,-122.411935615745,,Point,2014-11-10 05:45:00,ASSAULT,CHILD ABUSE (PHYSICAL),Monday,SOUTHERN,"ARREST, BOOKED",STEVENSON ST / 7TH ST,-122.411935615745,37.780006442029794
37.789368344193896,-122.41455494733299,,Point,2009-04-15 20:41:00,FRAUD,"TRICK AND DEVICE, GRAND THEFT",Wednesday,CENTRAL,PROSECUTED BY OUTSIDE AGENCY,1000 Block of BUSH ST,-122.41455494733299,37.789368344193896
37.7878080003666,-122.404271795034,,Point,2009-05-26 10:30:00,NON-CRIMINAL,LOST PROPERTY,Tuesday,CENTRAL,NONE,0 Block of GEARY ST,-122.404271795034,37.7878080003666
37.7749629647565,-122.492903087989,,Point,2013-07-11 11:20:00,MISSING PERSON,MISSING JUVENILE,Thursday,RICHMOND,LOCATED,700 Block of 33RD AV,-122.492903087989,37.7749629647565
37.77133878266171,-122.5110542483,,Point,2004-07-08 14:00:00,LARCENY/THEFT,PETTY THEFT FROM LOCKED AUTO,Thursday,RICHMOND,NONE,FULTON ST / UPPER GREAT HY,-122.5110542483,37.77133878266171
37.7903312930658,-122.40548076226901,,Point,2003-07-11 03:00:00,LARCENY/THEFT,GRAND THEFT FROM LOCKED AUTO,Friday,CENTRAL,NONE,300 Block of GRANT AV,-122.40548076226901,37.7903312930658
37.7522391652625,-122.418448186101,,Point,2009-09-06 22:09:00,OTHER OFFENSES,RESISTING ARREST,Sunday,MISSION,"ARREST, BOOKED",MISSION ST / 24TH ST,-122.418448186101,37.7522391652625
37.7564864109309,-122.406539115148,,Point,2013-06-25 09:00:00,SUSPICIOUS OCC,SUSPICIOUS OCCURRENCE,Tuesday,MISSION,NONE,1000 Block of POTRERO AV,-122.406539115148,37.7564864109309
37.7693967099165,-122.451288061231,,Point,2003-08-05 18:30:00,ASSAULT,BATTERY,Tuesday,PARK,NONE,1700 Block of HAIGHT ST,-122.451288061231,37.7693967099165
37.7854922044602,-122.40785423453801,,Point,2013-12-09 14:00:00,NON-CRIMINAL,LOST PROPERTY,Monday,TENDERLOIN,NONE,POWELL ST / ELLIS ST,-122.40785423453801,37.7854922044602
37.7095911880937,-122.40773536738199,,Point,2008-01-09 19:00:00,VEHICLE THEFT,STOLEN TRUCK,Wednesday,INGLESIDE,NONE,SUNNYDALE AV / PEABODY ST,-122.40773536738199,37.7095911880937
37.7410287442117,-122.42284237605101,,Point,2008-11-14 23:30:00,LIQUOR LAWS,CONSUMING ALCOHOL IN PUBLIC VIEW,Friday,INGLESIDE,"ARREST, CITED",MISSION ST / CORTLAND AV,-122.42284237605101,37.7410287442117
37.7823192392643,-122.42577891406,,Point,2004-01-23 12:08:00,NON-CRIMINAL,FOUND PROPERTY,Friday,NORTHERN,UNFOUNDED,1000 Block of EDDY ST,-122.42577891406,37.7823192392643
37.8072756032801,-122.415618823722,,Point,2013-07-22 17:00:00,LARCENY/THEFT,GRAND THEFT FROM LOCKED AUTO,Monday,CENTRAL,NONE,TAYLOR ST / BEACH ST,-122.415618823722,37.8072756032801
37.7594144253287,-122.419196838603,,Point,2013-02-18 20:00:00,LARCENY/THEFT,PETTY THEFT FROM A BUILDING,Monday,MISSION,NONE,2300 Block of MISSION ST,-122.419196838603,37.7594144253287
37.7944798289308,-122.394751181628,,Point,2007-10-15 11:28:00,DRUNKENNESS,UNDER INFLUENCE OF ALCOHOL IN A PUBLIC PLACE,Monday,SOUTHERN,"ARREST, BOOKED",MARKET ST / STEUART ST,-122.394751181628,37.7944798289308
37.780821970809896,-122.422090267894,,Point,2004-05-12 10:00:00,LARCENY/THEFT,PETTY THEFT FROM LOCKED AUTO,Wednesday,NORTHERN,NONE,GOLDEN GATE AV / FRANKLIN ST,-122.422090267894,37.780821970809896
37.7771309690233,-122.41574012798401,,Point,2014-07-22 13:20:00,ROBBERY,ROBBERY ON THE STREET WITH A DANGEROUS WEAPON,Tuesday,SOUTHERN,NONE,0 Block of 9TH ST,-122.41574012798401,37.7771309690233
37.7611477647601,-122.417169894749,,Point,2014-05-12 04:00:00,SUSPICIOUS OCC,INVESTIGATIVE DETENTION,Monday,MISSION,NONE,700 Block of SOUTH VAN NESS AV,-122.417169894749,37.7611477647601
37.8030283886099,-122.419434720235,,Point,2014-04-05 11:25:00,LARCENY/THEFT,GRAND THEFT FROM LOCKED AUTO,Saturday,CENTRAL,NONE,900 Block of CHESTNUT ST,-122.419434720235,37.8030283886099
37.784696907904,-122.413609328985,,Point,2003-10-02 14:16:00,OTHER OFFENSES,VIOLATION OF RESTRAINING ORDER,Thursday,TENDERLOIN,"ARREST, BOOKED",400 Block of ELLIS ST,-122.413609328985,37.784696907904
37.788566771986396,-122.410083096191,,Point,2005-04-20 12:00:00,VEHICLE THEFT,"VEHICLE, RECOVERED, OTHER VEHICLE",Wednesday,CENTRAL,NONE,500 Block of MASON ST,-122.410083096191,37.788566771986396
37.7851225223607,-122.41032349523199,,Point,2015-03-17 13:20:00,ASSAULT,AGGRAVATED ASSAULT WITH A DEADLY WEAPON,Tuesday,TENDERLOIN,NONE,200 Block of ELLIS ST,-122.41032349523199,37.7851225223607
37.7794578169764,-122.402379853055,,Point,2009-10-26 16:30:00,VEHICLE THEFT,STOLEN AUTOMOBILE,Monday,SOUTHERN,NONE,CLARA ST / 5TH ST,-122.402379853055,37.7794578169764
37.753084671409,-122.417499429971,,Point,2014-07-27 10:00:00,MISSING PERSON,MISSING ADULT,Sunday,MISSION,"ARREST, BOOKED",800 Block of CAPP ST,-122.417499429971,37.753084671409
37.778124778298505,-122.391845617234,,Point,2005-11-15 18:36:00,DRUG/NARCOTIC,POSSESSION OF MARIJUANA FOR SALES,Tuesday,SOUTHERN,"ARREST, BOOKED",3RD ST / KING ST,-122.391845617234,37.778124778298505
37.7856272511349,-122.466691991903,,Point,2015-02-17 15:30:00,MISSING PERSON,MISSING ADULT,Tuesday,RICHMOND,UNFOUNDED,100 Block of 8TH AV,-122.466691991903,37.7856272511349
37.796062067990896,-122.411743045233,,Point,2014-04-14 21:40:00,NON-CRIMINAL,"AIDED CASE, MENTAL DISTURBED",Monday,CENTRAL,PSYCHOPATHIC CASE,1300 Block of MASON ST,-122.411743045233,37.796062067990896
37.791451897000705,-122.395336395079,,Point,2010-06-01 12:00:00,FRAUD,"CREDIT CARD, THEFT BY USE OF",Tuesday,SOUTHERN,PROSECUTED BY OUTSIDE AGENCY,200 Block of MISSION ST,-122.395336395079,37.791451897000705
37.7842645474624,-122.404636264759,,Point,2010-03-26 01:00:00,OTHER OFFENSES,FALSE PERSONATION,Friday,SOUTHERN,NONE,800 Block of MISSION ST,-122.404636264759,37.7842645474624
37.7786320490341,-122.410111373792,,Point,2013-09-05 07:46:00,OTHER OFFENSES,PROBATION VIOLATION,Thursday,SOUTHERN,"ARREST, BOOKED",100 Block of 7TH ST,-122.410111373792,37.7786320490341
37.748155469233204,-122.45868018978202,,Point,2009-03-04 07:00:00,VANDALISM,"MALICIOUS MISCHIEF, VANDALISM OF VEHICLES",Wednesday,PARK,NONE,300 Block of LAGUNAHONDA BL,-122.45868018978202,37.748155469233204
37.7820238478975,-122.401161555602,,Point,2009-12-13 00:01:00,LARCENY/THEFT,GRAND THEFT FROM LOCKED AUTO,Sunday,SOUTHERN,NONE,4TH ST / FOLSOM ST,-122.401161555602,37.7820238478975
37.7629167766586,-122.41217394626499,,Point,2008-11-29 12:00:00,VEHICLE THEFT,STOLEN AND RECOVERED VEHICLE,Saturday,MISSION,NONE,MARIPOSA ST / ALABAMA ST,-122.41217394626499,37.7629167766586
37.7383338978754,-122.38513509507601,,Point,2013-01-13 11:00:00,SECONDARY CODES,DOMESTIC VIOLENCE,Sunday,BAYVIEW,NONE,1400 Block of HUDSON AV,-122.38513509507601,37.7383338978754
37.712616576623894,-122.413676487435,,Point,2007-07-13 06:40:00,ASSAULT,THREATS AGAINST LIFE,Friday,INGLESIDE,"ARREST, BOOKED",100 Block of LOEHR ST,-122.413676487435,37.712616576623894
37.803204271939705,-122.424923476884,,Point,2005-11-06 20:00:00,LARCENY/THEFT,GRAND THEFT FROM LOCKED AUTO,Sunday,NORTHERN,NONE,VANNESS AV / FRANCISCO ST,-122.424923476884,37.803204271939705
37.784696907904,-122.413609328985,,Point,2008-05-31 15:00:00,LARCENY/THEFT,PETTY THEFT OF PROPERTY,Saturday,TENDERLOIN,NONE,400 Block of ELLIS ST,-122.413609328985,37.784696907904
37.7857446545609,-122.405832474482,,Point,2008-12-26 22:00:00,LARCENY/THEFT,PETTY THEFT OF PROPERTY,Friday,SOUTHERN,NONE,4TH ST / MARKET ST,-122.405832474482,37.7857446545609
37.7886491245294,-122.406021838484,,Point,2014-02-23 14:55:00,LARCENY/THEFT,GRAND THEFT FROM LOCKED AUTO,Sunday,CENTRAL,NONE,200 Block of POST ST,-122.406021838484,37.7886491245294
37.7224336236684,-122.395622324587,,Point,2007-02-19 19:00:00,LARCENY/THEFT,GRAND THEFT PICKPOCKET,Monday,BAYVIEW,NONE,3RD ST / PAUL AV,-122.395622324587,37.7224336236684
37.77709095340229,-122.394985875925,,Point,2014-09-18 15:15:00,OTHER OFFENSES,"DRIVERS LICENSE, SUSPENDED OR REVOKED",Thursday,SOUTHERN,"ARREST, CITED",4TH ST / TOWNSEND ST,-122.394985875925,37.77709095340229
37.7781634278768,-122.41108692371999,,Point,2014-01-22 18:00:00,LARCENY/THEFT,GRAND THEFT FROM LOCKED AUTO,Wednesday,SOUTHERN,NONE,600 Block of MINNA ST,-122.41108692371999,37.7781634278768
37.7204312224247,-122.38837455031602,,Point,2006-12-03 09:00:00,BURGLARY,"BURGLARY OF APARTMENT HOUSE, UNLAWFUL ENTRY",Sunday,BAYVIEW,NONE,200 Block of CAMERON WY,-122.38837455031602,37.7204312224247
37.7609280145455,-122.420803652133,,Point,2005-10-22 06:10:00,NON-CRIMINAL,FOUND PROPERTY,Saturday,MISSION,"ARREST, BOOKED",100 Block of LEXINGTON ST,-122.420803652133,37.7609280145455
37.729280443217505,-122.392625489263,,Point,2006-04-06 12:17:00,LIQUOR LAWS,CONSUMING ALCOHOL IN PUBLIC VIEW,Thursday,BAYVIEW,"ARREST, BOOKED",WILLIAMS AV / 3RD ST,-122.392625489263,37.729280443217505
37.79268136335021,-122.42534230955499,,Point,2009-09-03 14:00:00,FRAUD,"CREDIT CARD, THEFT BY USE OF",Thursday,NORTHERN,NONE,1900 Block of WASHINGTON ST,-122.42534230955499,37.79268136335021
37.7748449214209,-122.44278366759,,Point,2015-03-30 18:15:00,NON-CRIMINAL,"AIDED CASE, MENTAL DISTURBED",Monday,PARK,PSYCHOPATHIC CASE,400 Block of LYON ST,-122.44278366759,37.7748449214209
37.7756912449511,-122.42522553805401,,Point,2003-03-04 20:30:00,BURGLARY,"BURGLARY,APT UNDER CONSTRUCTION, UNLAWFUL ENTRY",Tuesday,NORTHERN,NONE,400 Block of FELL ST,-122.42522553805401,37.7756912449511
37.788222542403396,-122.420211964957,,Point,2003-02-04 23:15:00,DRUG/NARCOTIC,POSSESSION OF NARCOTICS PARAPHERNALIA,Tuesday,NORTHERN,"ARREST, BOOKED",FERN ST / POLK ST,-122.420211964957,37.788222542403396
37.784481757201,-122.41768800956801,,Point,2010-05-18 04:21:00,OTHER OFFENSES,"DRIVERS LICENSE, SUSPENDED OR REVOKED",Tuesday,NORTHERN,"ARREST, BOOKED",700 Block of LARKIN ST,-122.41768800956801,37.784481757201
37.71412858024621,-122.434159059573,,Point,2011-08-28 18:00:00,MISSING PERSON,FOUND PERSON,Sunday,INGLESIDE,LOCATED,900 Block of ATHENS ST,-122.434159059573,37.71412858024621
37.7892026281082,-122.423785184867,,Point,2007-08-07 03:30:00,LARCENY/THEFT,GRAND THEFT FROM LOCKED AUTO,Tuesday,NORTHERN,NONE,FRANKLIN ST / PINE ST,-122.423785184867,37.7892026281082
37.7858246424077,-122.484628070779,,Point,2013-05-01 07:30:00,LARCENY/THEFT,GRAND THEFT FROM A BUILDING,Wednesday,RICHMOND,NONE,2300 Block of LAKE ST,-122.484628070779,37.7858246424077
37.7791933366389,-122.402142725311,,Point,2014-11-30 19:00:00,SECONDARY CODES,DOMESTIC VIOLENCE,Sunday,SOUTHERN,NONE,300 Block of 5TH ST,-122.402142725311,37.7791933366389
37.763494581152,-122.499623202663,,Point,2014-10-17 02:00:00,LARCENY/THEFT,PETTY THEFT FROM LOCKED AUTO,Friday,TARAVAL,NONE,1200 Block of 40TH AV,-122.499623202663,37.763494581152
37.7850629421661,-122.40652098714399,,Point,2014-12-22 18:42:00,NON-CRIMINAL,"CIVIL SIDEWALKS, CITATION",Monday,SOUTHERN,"ARREST, BOOKED",800 Block of MARKET ST,-122.40652098714399,37.7850629421661
37.7564229800263,-122.402671594737,,Point,2003-02-18 21:00:00,VEHICLE THEFT,"VEHICLE, RECOVERED, OTHER VEHICLE",Tuesday,BAYVIEW,NONE,1000 Block of KANSAS ST,-122.402671594737,37.7564229800263
37.7611793380702,-122.48877991303499,,Point,2004-10-15 18:00:00,NON-CRIMINAL,"AIDED CASE, MENTAL DISTURBED",Friday,TARAVAL,PSYCHOPATHIC CASE,30TH AV / JUDAH ST,-122.48877991303499,37.7611793380702
37.7841666882161,-122.40165866347601,,Point,2014-11-25 14:00:00,LARCENY/THEFT,GRAND THEFT OF PROPERTY,Tuesday,SOUTHERN,NONE,700 Block of HOWARD ST,-122.40165866347601,37.7841666882161
37.7842081124308,-122.414269361877,,Point,2014-03-22 20:30:00,WARRANTS,WARRANT ARREST,Saturday,TENDERLOIN,"ARREST, BOOKED",300 Block of LEAVENWORTH ST,-122.414269361877,37.7842081124308
37.7852071918419,-122.40669059226101,,Point,2014-05-31 17:40:00,ASSAULT,BATTERY,Saturday,SOUTHERN,"ARREST, BOOKED",800 Block of MARKET ST,-122.40669059226101,37.7852071918419
37.7610475742041,-122.411093822635,,Point,2015-03-20 20:00:00,MISSING PERSON,FOUND PERSON,Friday,MISSION,NONE,600 Block of FLORIDA ST,-122.411093822635,37.7610475742041
37.7497620227402,-122.419252716313,,Point,2010-12-18 00:01:00,VANDALISM,"MALICIOUS MISCHIEF, VANDALISM OF VEHICLES",Saturday,MISSION,NONE,400 Block of BARTLETT ST,-122.419252716313,37.7497620227402
37.7536322498822,-122.406324313914,,Point,2013-06-27 11:07:00,OTHER OFFENSES,PAROLE VIOLATION,Thursday,MISSION,"ARREST, BOOKED",1100 Block of POTRERO AV,-122.406324313914,37.7536322498822
37.7871160984672,-122.40391914835699,,Point,2005-05-16 07:00:00,LARCENY/THEFT,PETTY THEFT FROM A BUILDING,Monday,SOUTHERN,DISTRICT ATTORNEY REFUSES TO PROSECUTE,700 Block of MARKET ST,-122.40391914835699,37.7871160984672
37.7850943210103,-122.407845374111,,Point,2013-04-06 18:24:00,OTHER OFFENSES,RESISTING ARREST,Saturday,TENDERLOIN,"ARREST, BOOKED",0 Block of POWELL ST,-122.407845374111,37.7850943210103
37.7535411861259,-122.45257015129101,,Point,2009-10-31 11:00:00,NON-CRIMINAL,AIDED CASE,Saturday,PARK,NONE,PANORAMA DR / DELLBROOK AV,-122.45257015129101,37.7535411861259
37.755568796919,-122.416569016036,,Point,2013-07-28 12:50:00,OTHER OFFENSES,"DRIVERS LICENSE, SUSPENDED OR REVOKED",Sunday,MISSION,"ARREST, CITED",SOUTH VAN NESS AV / 22ND ST,-122.416569016036,37.755568796919
37.78418470913029,-122.41856209710501,,Point,2005-05-06 08:30:00,VANDALISM,"MALICIOUS MISCHIEF, VANDALISM",Friday,NORTHERN,NONE,700 Block of ELLIS ST,-122.41856209710501,37.78418470913029
37.7206928290134,-122.466197131288,,Point,2007-08-23 20:00:00,MISSING PERSON,MISSING ADULT,Thursday,TARAVAL,LOCATED,500 Block of RAMSELL ST,-122.466197131288,37.7206928290134
37.7305528786961,-122.38307233133699,,Point,2012-03-07 21:22:00,WEAPON LAWS,TAMPERING WITH MARKS ON FIREARM,Wednesday,BAYVIEW,"ARREST, BOOKED",1200 Block of OAKDALE AV,-122.38307233133699,37.7305528786961
37.7807160084989,-122.43042495533399,,Point,2010-10-09 19:00:00,NON-CRIMINAL,LOST PROPERTY,Saturday,NORTHERN,NONE,TURK ST / WEBSTER ST,-122.43042495533399,37.7807160084989
37.7878271137225,-122.40838427554199,,Point,2010-11-21 15:15:00,TRESPASS,TRESPASSING,Sunday,CENTRAL,"ARREST, CITED",300 Block of POWELL ST,-122.40838427554199,37.7878271137225
37.7706967930865,-122.407702149718,,Point,2011-12-27 11:57:00,LARCENY/THEFT,PETTY THEFT WITH PRIOR,Tuesday,SOUTHERN,"ARREST, BOOKED",500 Block of 9TH ST,-122.407702149718,37.7706967930865
37.7354310008249,-122.443949690206,,Point,2009-08-17 09:00:00,FORGERY/COUNTERFEITING,"FORGERY, FALSE ENTRIES IN RECORDS OR RETURNS",Monday,INGLESIDE,UNFOUNDED,0 Block of MALTA DR,-122.443949690206,37.7354310008249
37.7495156473946,-122.477148108666,,Point,2014-06-15 10:19:00,LARCENY/THEFT,ATTEMPTED THEFT FROM LOCKED VEHICLE,Sunday,TARAVAL,NONE,2000 Block of 20TH AV,-122.477148108666,37.7495156473946
37.7362497231109,-122.39313102239201,,Point,2007-07-14 14:00:00,ASSAULT,BATTERY,Saturday,BAYVIEW,"ARREST, CITED",1700 Block of OAKDALE AV,-122.39313102239201,37.7362497231109
37.7726948236861,-122.42218826142599,,Point,2015-05-03 19:30:00,SEX OFFENSES FORCIBLE,SEXUAL BATTERY,Sunday,SOUTHERN,NONE,1700 Block of MARKET ST,-122.42218826142599,37.7726948236861
37.786734218498296,-122.405895369887,,Point,2003-07-10 21:38:00,LARCENY/THEFT,PETTY THEFT SHOPLIFTING,Thursday,TENDERLOIN,JUVENILE ADMONISHED,0 Block of OFARRELL ST,-122.405895369887,37.786734218498296
37.7127850990589,-122.444570165424,,Point,2009-10-01 16:49:00,OTHER OFFENSES,TRAFFIC VIOLATION ARREST,Thursday,INGLESIDE,NONE,GUTTENBERG ST / MISSION ST,-122.444570165424,37.7127850990589
37.7571580431915,-122.406604919508,,Point,2009-07-11 17:30:00,ASSAULT,BATTERY,Saturday,MISSION,NONE,900 Block of POTRERO AV,-122.406604919508,37.7571580431915
37.7751462916539,-122.419257894814,,Point,2006-09-05 11:12:00,DRUNKENNESS,UNDER INFLUENCE OF ALCOHOL IN A PUBLIC PLACE,Tuesday,SOUTHERN,"ARREST, BOOKED",MARKET ST / VANNESS AV,-122.419257894814,37.7751462916539
37.780085469751604,-122.40306483193599,,Point,2007-03-11 00:01:00,WARRANTS,ENROUTE TO OUTSIDE JURISDICTION,Sunday,SOUTHERN,"ARREST, BOOKED",300 Block of 5TH ST,-122.40306483193599,37.780085469751604
37.7788323158792,-122.415642487855,,Point,2012-05-28 05:56:00,LOITERING,OBSTRUCTING PUBLIC THOROUGHFARE,Monday,TENDERLOIN,"ARREST, CITED",0 Block of GROVE ST,-122.415642487855,37.7788323158792
37.7324172771969,-122.440909696779,,Point,2006-12-31 11:00:00,VANDALISM,"MALICIOUS MISCHIEF, BREAKING WINDOWS WITH BB GUN",Sunday,INGLESIDE,NONE,200 Block of JOOST AV,-122.440909696779,37.7324172771969
37.7850629421661,-122.40652098714399,,Point,2003-11-01 11:40:00,LARCENY/THEFT,PETTY THEFT SHOPLIFTING,Saturday,SOUTHERN,"ARREST, CITED",800 Block of MARKET ST,-122.40652098714399,37.7850629421661
37.725669186459,-122.46359748095301,,Point,2003-07-27 23:00:00,LARCENY/THEFT,PETTY THEFT FROM LOCKED AUTO,Sunday,TARAVAL,NONE,1900 Block of OCEAN AV,-122.46359748095301,37.725669186459
37.73716994462029,-122.389865610332,,Point,2010-12-17 09:10:00,OTHER OFFENSES,"DRIVERS LICENSE, SUSPENDED OR REVOKED",Friday,BAYVIEW,"ARREST, CITED",LASALLE AV / 3RD ST,-122.389865610332,37.73716994462029
